Time,header.seq,header.stamp.secs,header.stamp.nsecs,header.frame_id,torques.x,torques.y,torques.z
5.672,83,5,672000000,,0.00025691395400581087,-0.001665598207938027,0.0155053872211212
5.681,84,5,681000000,,0.00020635732709336862,-0.0012556232735644786,0.014809482221677942
5.696,85,5,696000000,,0.00017365726021056422,-0.0012816489068833263,0.012822427525925627
5.704,86,5,704000000,,0.00017784026949775798,-0.0013077758438619956,0.01033606977847145
5.713,87,5,712000000,,7.121345373503728e-05,-0.0016325909755761218,0.00906776257246298
5.729,88,5,729000000,,0.0002817352632050407,-0.0012253139048009345,0.008682346719513769
5.732,89,5,731000000,,0.00045431393277816235,-0.0013300396243034259,0.00804507732575905
5.742,90,5,742000000,,-4.070705577292021e-06,-0.0011528167627623477,0.008616947568494765
5.754,91,5,754000000,,0.0002730746508827501,-0.0008381925626404606,0.00841873420460855
5.767,92,5,767000000,,-2.2593746412171388e-05,-0.00023707483006318603,0.005692347630207706
5.773,93,5,772000000,,-0.0008878430170301478,-0.00011139656336334636,0.0024210076015202045
5.782,94,5,782000000,,-0.0008767325427382908,-0.0006582287484219627,0.002261067157781023
5.7940000000000005,95,5,794000000,,-0.000614676251509459,-0.0008432150803828292,0.002904113664865385
5.802,96,5,802000000,,0.000416639552312587,-0.00036073648809164843,0.0041280916219809255
5.812,97,5,812000000,,0.0011344434171203551,0.0005107021510155514,0.006229210296492281
5.824,98,5,824000000,,0.00044784277432082973,0.00011452614192624679,0.006805212554541022
5.834,99,5,834000000,,-0.000714713543163951,-0.0008748267840864515,0.0059090960414695665
5.843,100,5,842000000,,-0.0010134905053752307,-0.0010900158593146316,0.0037350141933141234
5.853,101,5,853000000,,-0.0006718152972193049,-0.0007157835627343008,0.003306820862098457
5.862,102,5,862000000,,-3.6792349641206405e-05,-0.00012443448808640125,0.0029960272895258877
5.871,103,5,870000000,,0.0004839885150254523,3.90323545442228e-05,0.004433698701217723
5.88,104,5,879000000,,0.00046197168601124926,-0.00023072859195512416,0.00640665664830186
5.891,105,5,891000000,,0.00034663233596524676,-0.0003861061161419782,0.007241268333396826
5.901,106,5,900000000,,-0.0003139166755292049,-0.0005592789730084911,0.005783866976232309
5.913,107,5,913000000,,-0.0006357184543106207,-0.0005918251741181674,0.00425175379048448
5.93,108,5,929000000,,-0.0006834518265223592,-0.0005871344319693208,0.0040436009384902105
5.934,109,5,934000000,,-0.0003289121989884054,-0.0003202854634505564,0.001840157392919678
5.942,110,5,942000000,,0.00048076510057191155,-0.0001597571142625577,0.0046684505650060465
5.952,111,5,952000000,,0.0006669322581623915,-0.00032390691179764834,0.0070587287201515775
5.965,112,5,965000000,,0.00027508451218741963,-0.0005098788668478817,0.007613898495979654
5.972,113,5,972000000,,-0.0005064946309107348,-0.0006663578534684927,0.006595095654640823
5.9830000000000005,114,5,981000000,,-0.000586398367274167,-0.00047757070525612224,0.004255086109031844
5.994,115,5,994000000,,-0.0004547402637900668,-0.00032751112480937654,0.003390054333978057
6.001,116,6,0,,-2.2911975773520982e-05,-0.0003263118037754736,0.0035338490969128306
6.031,117,6,30000000,,0.00029476681629447935,-0.00044320829027239233,0.005721104076687605
6.032,118,6,32000000,,0.0007846090067201427,-0.0007680905699410669,0.011136689920264592
6.033,119,6,33000000,,0.0007737329138656848,-0.0008127265280176124,0.012476706664812653
6.042,120,6,42000000,,0.00010633013561461868,-0.0006665184693049491,0.008173910241617635
6.058,121,6,58000000,,-0.0007246794174808992,-0.00041392367670085644,0.005823791624288671
6.062,122,6,61000000,,-0.0011446156675056864,-0.00012926758537906789,0.0018148671932728816
6.073,123,6,73000000,,-0.00022204503735057232,-0.00024943081952515144,0.0032804309327431336
6.089,124,6,89000000,,0.0010084024682397003,-0.0006149861789811282,0.006569498181908065
6.092,125,6,92000000,,0.0014636876914453222,-0.0010159510182411909,0.010640054865037787
6.107,126,6,106000000,,0.0003859582359593681,-0.0008830546072747469,0.009261059242930705
6.113,127,6,113000000,,-0.001304186628916757,-0.00036953243037325754,0.006696636659744043
6.129,128,6,129000000,,-0.0011737828575613509,-8.016250124482554e-05,0.004458458145319519
6.135,129,6,135000000,,6.285731502577596e-05,-8.86743031298801e-05,0.0021580884928632388
6.141,130,6,141000000,,0.0009603879074438527,-0.0004817350901376665,0.004050944476101742
6.15,131,6,150000000,,0.00045445563607981717,-0.0008341186685147741,0.006671008629680633
6.163,132,6,163000000,,7.550466585006665e-05,-0.0008220467665776045,0.008657097733340585
6.175,133,6,175000000,,-6.059799500147809e-05,-0.000736994426616414,0.00930198481003941
6.19,134,6,189000000,,-0.00036418208629568783,-0.00025175602554884354,0.005249447106044913
6.194,135,6,194000000,,-0.0004881894681825186,-6.338798060836039e-05,0.004050539028065736
6.209,136,6,209000000,,-0.0003327951288915206,-0.0001505480280677065,0.004541850364264549
6.225,137,6,225000000,,0.00018000232854982655,-0.0006156394449444076,0.00558438799626812
6.228,138,6,228000000,,0.0009676752989870125,-0.001573938346752523,0.009686310702631762
6.231,139,6,231000000,,0.0010612310934520648,-0.001776739299707395,0.011672371295355824
6.241,140,6,240000000,,-6.444312615552593e-05,-0.0007658456938648139,0.009124405042231942
6.258,141,6,258000000,,-0.0006726695135824323,-6.115252740229943e-05,0.007179433697182075
6.261,142,6,261000000,,-0.0007272172626235714,0.0003234672017791147,0.00399449029663225
6.284,143,6,283000000,,-6.94271451586035e-05,-0.00029112324135971554,0.005068902929514493
6.288,144,6,288000000,,0.000928174670252427,-0.0015331229078228404,0.007414705234850202
6.295,145,6,294000000,,0.0011414927037500643,-0.0020040344552514477,0.009803842076880204
6.302,146,6,301000000,,1.955295504228445e-05,-0.0011289223838611274,0.010325338110204557
6.32,147,6,320000000,,-0.0004253412294466462,-0.0005221931088291915,0.009872395757191649
6.321,148,6,321000000,,-0.0005306968294699288,0.00012913780878005517,0.00705311013330745
6.331,149,6,331000000,,-0.00022933970042264486,-2.5344023252135955e-05,0.006110386858408576
6.341,150,6,341000000,,9.981850310416553e-05,-0.00048481749560278214,0.005408366367264605
6.352,151,6,352000000,,0.00035057241178146326,-0.0011111182247800807,0.0065333217552928785
6.363,152,6,363000000,,0.0005687927621315133,-0.002025093847951475,0.009294824195797205
6.379,153,6,378000000,,-1.9926150017484517e-06,-0.001299313756775586,0.010326597497643586
6.381,154,6,381000000,,-0.0006105185191224236,-0.00016822815426640984,0.01047647603926792
6.392,155,6,392000000,,-0.0007272791046283621,0.0004354231318866356,0.009247381543516786
6.401,156,6,400000000,,-0.00030883128326180667,0.0003120627230640974,0.007433360685703591
6.413,157,6,413000000,,0.000610607409195513,-0.0009689956350321248,0.004358890504483431
6.421,158,6,420000000,,0.0003258920229162538,-0.0014276340389163004,0.007366487764818935
6.438,159,6,438000000,,-0.0003529749611667746,-0.0016174692521389307,0.011661815582477336
6.446,160,6,445000000,,-0.0006976951323841173,-0.0012775012887165879,0.011796259688148458
6.452,161,6,450000000,,-0.000243983771611076,-0.0003610320832684653,0.009745538914436774
6.466,162,6,466000000,,0.00011898180263975364,-6.425189121027873e-06,0.00811659081631605
6.473,163,6,472000000,,0.0003447201862433892,7.511997203507505e-05,0.006203760813004777
6.481,164,6,481000000,,0.00016743820694365848,-0.0006240013347396309,0.00688572938446555
6.496,165,6,496000000,,-9.944951714894036e-05,-0.0014457982400465034,0.008798720187422227
6.504,166,6,504000000,,-0.00014757273843229768,-0.0016042589855261662,0.010474151078590344
6.511,167,6,510000000,,-0.0003933978202905495,-0.001695369821868139,0.011517892094433602
6.531,168,6,531000000,,-0.00039530901717468154,-0.001734737727549067,0.013100746211093306
6.535,169,6,535000000,,0.00010438940082563482,0.00048145262262674557,0.008261314443295392
6.543,170,6,543000000,,0.0006681612147029553,0.0014651888294096695,0.004812017250574202
6.566,171,6,566000000,,0.00020393874338922677,-0.0008896103684930207,0.007478686822338959
6.567,172,6,567000000,,-0.0011100194555828135,-0.005057629808580073,0.012480551328783812
6.57,173,6,570000000,,-0.001146454273390534,-0.004827308511872491,0.011972932381604101
6.582,174,6,582000000,,-7.922526412722225e-05,1.9307779216418477e-05,0.01053474064353721
6.599,175,6,598000000,,0.0004513860397806653,0.0013608653558598912,0.008561427428820434
6.602,176,6,602000000,,0.0006541296702972578,0.0007973468887275525,0.008382082616782471
6.614,177,6,613000000,,0.0002352957604533499,-0.0010120627530891988,0.008690760123891916
6.63,178,6,630000000,,-0.0003298192534581002,-0.0020508297038041657,0.009339130732231804
6.635,179,6,635000000,,-0.0008356911982916358,-0.0022864551055120355,0.01044969787382738
6.642,180,6,642000000,,-0.0007816429515435793,-0.001398031759539957,0.010228457219596226
6.6530000000000005,181,6,652000000,,-0.0001901337553007798,-0.0006030416600386196,0.010279465583308806
6.662,182,6,661000000,,0.0005255495915685929,6.141117225790926e-05,0.00975063519466407
6.672,183,6,672000000,,0.0007244889639282299,-4.17928327472155e-05,0.009650774020369873
6.684,184,6,684000000,,0.00024769747482244824,-0.0009214852027733256,0.009873263155581735
6.691,185,6,690000000,,-0.0005716369159392985,-0.001906463509766451,0.00991739697204913
6.7010000000000005,186,6,701000000,,-0.0008292542351198658,-0.0019136278537402688,0.010370951906764708
6.712,187,6,712000000,,-0.00045471506180746525,-0.0008087584984473786,0.0092132270474381
6.737,188,6,737000000,,0.00022325523732179758,-0.00015099515313677335,0.009799971310500089
6.738,189,6,738000000,,0.0016214771760305563,0.00039464926034276596,0.010609787476138832
6.741,190,6,741000000,,0.0017580111194071457,0.0003429042709973207,0.011989183546780413
6.754,191,6,754000000,,-0.00017357374470231945,-0.0014291923216350438,0.010792287721284183
6.771,192,6,771000000,,-0.001772396257458864,-0.0026841622493626004,0.009995862463603955
6.773,193,6,773000000,,-0.001995351093904381,-0.0021966093374194717,0.008193475350376817
6.781,194,6,782000000,,-0.0008665273930293419,-0.0010656857498334412,0.009513747825648566
6.793,195,6,793000000,,0.0010248089186610685,0.00020645322355703714,0.010768313013799019
6.815,196,6,815000000,,0.0016845825498986208,0.0002015573276873935,0.012270412969296485
6.819,197,6,819000000,,-3.713771087734541e-05,-0.0019591592647322568,0.01213627143464388
6.821,198,6,821000000,,-0.0010635877718254022,-0.0027602228417188774,0.011846744331368259
6.832,199,6,830000000,,-0.0013708017577920763,-0.0018643663508374512,0.009957650833367027
6.856,200,6,856000000,,-0.0006798633885046833,-0.000547257807955984,0.008623901888030333
6.8580000000000005,201,6,858000000,,0.0017792344405972564,0.0011240847290585002,0.009604410546165149
6.862,202,6,861000000,,0.002342613089515316,0.0011936987524326682,0.012075065960799408
6.874,203,6,874000000,,0.0005474125031078365,-0.0013000228128148415,0.013357546730247388
6.894,204,6,894000000,,-0.0012654338734678877,-0.00314733587569665,0.013031791732823123
6.898,205,6,898000000,,-0.002858123600396568,-0.0026227877327570813,0.007078446078200212
6.904,206,6,904000000,,-0.0030803443526734205,-0.002253598986077434,0.006593883947521945
6.911,207,6,911000000,,6.96898018537376e-05,0.00011783736283693756,0.009121247265504673
6.936,208,6,936000000,,0.0014797435671641279,3.7382659169412497e-05,0.011698133935338667
6.946,209,6,946000000,,0.0021229867150048378,-0.0016441988898629025,0.01741362987367856
6.953,210,6,953000000,,0.0004632688366504367,-0.0033043129563620375,0.01704367185480729
6.955,211,6,955000000,,0.00015314038579781656,-0.003426828286220965,0.01837816469418982
6.961,212,6,960000000,,-0.0020415428730524592,-0.0022384025452107286,0.010670925937637632
6.985,213,6,975000000,,-0.0015744799043746131,-0.00020381357949047618,0.008012255532427653
6.992,214,6,992000000,,0.0002539669912025143,0.0008037593432685232,0.00951878943663001
6.994,215,6,994000000,,0.003345094681967039,-0.000556476483994043,0.016788509081078817
7.001,216,7,0,,0.002152757605945624,-0.0015442122988726095,0.0165669089650603
7.011,217,7,10000000,,-0.0006165487376823581,-0.0017315945609318695,0.014476244539190802
7.026,218,7,23000000,,-0.0023593000190600005,-0.0009703144374991618,0.006581862670544336
7.032,219,7,32000000,,-0.0020844742085309948,-0.0006288114881417874,0.007058881309314563
7.041,220,7,40000000,,0.00027027540973092404,-0.0006661493632985427,0.008905625652476878
7.064,221,7,64000000,,0.0012311990071116686,-0.0010662454412768982,0.013259193227910582
7.067,222,7,67000000,,0.001786000436443013,-0.0018836461681082045,0.021288259094334377
7.071,223,7,71000000,,0.0010453783404013343,-0.0021672831178400926,0.019901044877997903
7.085,224,7,85000000,,-0.0012262924187757688,-0.0013831938431961444,0.013544509897657653
7.095,225,7,95000000,,-0.003067681473749575,-0.00021326214119320001,0.004857224584809666
7.103,226,7,103000000,,-0.0017415055709429994,0.0001542118595251902,0.00378725424217885
7.111,227,7,111000000,,0.001311249517288051,-0.0010163681792636553,0.011350292416290264
7.134,228,7,134000000,,0.001891452420165559,-0.0019201592698125081,0.01699900502126256
7.135,229,7,134000000,,0.0004619799031609224,-0.0024480108764162486,0.021560200495348958
7.142,230,7,142000000,,-0.0012785065211698677,-0.002121673090974549,0.017142951225427916
7.152,231,7,151000000,,-0.0018786556228283396,-0.0005844954898700672,0.010147752079212369
7.167,232,7,167000000,,-0.0011772434141882038,0.00012415271616676628,0.006049483494873831
7.171,233,7,170000000,,0.0007433875094076376,-0.00038659763295948585,0.008219505064299026
7.181,234,7,181000000,,0.0014321555705284227,-0.0017954887597646007,0.015074612683061095
7.205,235,7,205000000,,0.0008264222191302786,-0.002555333446963017,0.020125109039420302
7.206,236,7,206000000,,-0.00222167920072239,-0.001562940592285622,0.016243083253160595
7.214,237,7,214000000,,-0.0029180374710914337,-0.0007550390230410603,0.012656379209976587
7.222,238,7,221000000,,-0.0011563114412469786,0.00026607386928160105,0.006365656453546642
7.232,239,7,232000000,,0.0004573329289556293,-0.0005979285783987856,0.008915914358229637
7.241,240,7,240000000,,0.0012136960025921377,-0.0021242334014208676,0.015572707276299225
7.251,241,7,250000000,,0.0008458168636954146,-0.0024959473780830138,0.01932956679033815
7.261,242,7,260000000,,-0.00020309242358702178,-0.0019039555997479125,0.018234509852145475
7.272,243,7,272000000,,-0.0014030602297266926,-0.000571092430783216,0.012251782314462445
7.281,244,7,280000000,,-0.0016431011026785177,0.0004360257173686979,0.00629532928209281
7.291,245,7,291000000,,-0.00045626268113163333,-0.00015520837311324386,0.006620090319347238
7.315,246,7,314000000,,0.0011024344868468714,-0.002129728183497284,0.014214935228753722
7.319,247,7,318000000,,0.002239414723366459,-0.004566609848765711,0.027752727955256684
7.321,248,7,321000000,,0.0018028558619923893,-0.004622156140287556,0.029601873453921956
7.33,249,7,330000000,,-0.0014409884829369233,-0.0007403624382019821,0.013525200441326546
7.352,250,7,352000000,,-0.0018506226113115536,0.001013990505848274,0.008610307274188267
7.357,251,7,357000000,,-0.0006972158802976876,0.0011569518195445388,0.004002594620351296
7.362,252,7,362000000,,0.0009396065637772296,-0.00027478457209762115,0.0072353224614710165
7.373,253,7,373000000,,0.0014409614838248046,-0.0035070822858990084,0.018896275691885955
7.381,254,7,381000000,,0.00020993787188402602,-0.0039010072756080387,0.021749369741849822
7.407,255,7,406000000,,-0.00136939196815411,-0.0010517414739849018,0.016556241029046737
7.408,256,7,407000000,,-0.002775980339782912,0.0048337935293644805,-0.0031742505417858835
7.412,257,7,412000000,,-0.002827068455587292,0.005513133617967709,-0.0033659711677840876
7.421,258,7,420000000,,0.0006284903670866069,-0.0013771534038490973,0.012353145611536998
7.437,259,7,435000000,,0.0015314857650931056,-0.004853103456691831,0.01810894728832113
7.452,260,7,452000000,,0.0007388112630090742,-0.005392071014319788,0.024050010238467312
7.455,261,7,455000000,,-0.002135581181925901,-0.0007839298430716143,0.019680876719926244
7.462,262,7,462000000,,-0.0025063290197367446,0.0024527720050721473,0.011174396353436367
7.473,263,7,473000000,,-6.011824383657372e-05,0.0011316402597800184,0.008197079869659452
7.483,264,7,483000000,,0.00044150591666844376,0.0004990057312132968,0.009734004364737647
7.494,265,7,494000000,,0.0012759210883725274,-0.005168139658922795,0.018339976949011128
7.501,266,7,501000000,,0.0002692118207921672,-0.006394910013516309,0.02253029084131858
7.522,267,7,522000000,,-0.0015366339905135643,-0.0008515988979272589,0.017581265249446643
7.523,268,7,523000000,,-0.00250842526625745,0.0056833807244913775,0.007117950492107228
7.532,269,7,532000000,,-0.0007131644471883355,0.003702348267142974,0.008472777662322017
7.542,270,7,541000000,,0.0011574644362474685,-0.0018678704383577127,0.011355704648045695
7.554,271,7,554000000,,0.0005851159187537998,-0.004951787917262845,0.016568388253313082
7.563,272,7,563000000,,-0.001058659995335918,-0.00488866003403207,0.020588896265331447
7.577,273,7,577000000,,-0.001613819654739431,-0.0007768675496681978,0.018054247289379266
7.582,274,7,581000000,,-0.0009360772480958131,0.003575765088085177,0.012155437928048574
7.5920000000000005,275,7,590000000,,0.00031118992140838234,0.002297530714875028,0.011112998102450478
7.601,276,7,600000000,,0.0008904382132905375,-0.002402353774005407,0.01204423920675951
7.617,277,7,616000000,,-0.0004247214642078652,-0.003909042570552433,0.016120445517281756
7.627,278,7,627000000,,-0.0021075757784700827,-0.0038509794569736985,0.019730477290575033
7.631,279,7,631000000,,-0.0021612683632679175,-0.0014841672881671202,0.01891494882692668
7.643,280,7,643000000,,-2.581527779497582e-05,0.001375493075294696,0.0145965347494188
7.6530000000000005,281,7,653000000,,0.0012435821017661825,0.0016367166139900835,0.012188204718695028
7.663,282,7,663000000,,0.0006513030109345237,-0.001280893940817679,0.013383987187316149
7.676,283,7,677000000,,-0.0009081499826427648,-0.004166498981837054,0.015961714648028813
7.684,284,7,684000000,,-0.00233298711750855,-0.0050597206313342784,0.017948210545104037
7.7,285,7,700000000,,-0.0022482683546575922,-0.0028549323167972747,0.01860739660090982
7.702,286,7,702000000,,-0.0011290371617464368,0.0022193282830792454,0.016145084790099518
7.711,287,7,711000000,,0.0013137530545882,0.003465025747225632,0.014409951440953916
7.724,288,7,724000000,,0.0012228814007586891,-0.0010692662092319548,0.014901262299624074
7.7330000000000005,289,7,732000000,,-0.0007547562542286859,-0.0059399028265873476,0.015591864730043647
7.743,290,7,742000000,,-0.0026321994259023876,-0.004827390297939728,0.015763578740559392
7.751,291,7,751000000,,-0.0018346956010535697,4.450833562353283e-05,0.015371138806915263
7.763,292,7,762000000,,0.00045953833729181514,0.0018764711895426379,0.015801565425167474
7.771,293,7,770000000,,0.00234746664697558,0.0013257380027055562,0.016421277142074975
7.783,294,7,783000000,,0.0006970158184496375,-0.0020521281471297826,0.016242815288281254
7.792,295,7,791000000,,-0.0019888008600547815,-0.004191278637935369,0.015184768345046784
7.803,296,7,803000000,,-0.003133786145632055,-0.003294684240868326,0.013895664825275433
7.818,297,7,818000000,,-0.0014858041500966932,-0.00010791509414864123,0.014228268765013707
7.823,298,7,822000000,,0.0019718938335785783,0.0032384232594025583,0.016828249218744873
7.832,299,7,832000000,,0.0027468982251226937,0.0013756447444668793,0.018541702907934332
7.843,300,7,843000000,,0.00029252864115773196,-0.0026022019467350304,0.017605739892290362
7.8580000000000005,301,7,858000000,,-0.002785267542604151,-0.004566170324411611,0.01444338476460999
7.861,302,7,861000000,,-0.0045465370985568266,-0.0035720468683705423,0.01017903337224585
7.874,303,7,874000000,,-0.0011301209357652557,1.2336140654620707e-05,0.014199506068858114
7.893,304,7,893000000,,0.0026143678244758715,0.002074372892620124,0.018642561607998598
7.894,305,7,894000000,,0.0044206822301642796,0.0008795084235415076,0.023847667222495095
7.9030000000000005,306,7,903000000,,0.0019323196664526073,-0.0012507166719271253,0.020264961086559508
7.922,307,7,922000000,,-0.00275768801128012,-0.003575449964294727,0.014604650331952462
7.923,308,7,923000000,,-0.006367197661031018,-0.003642294648276922,0.004867387731640416
7.932,309,7,932000000,,-0.0032245873311126617,-0.0011388056365823377,0.01201291480583555
7.956,310,7,956000000,,0.004306377464221715,0.0022096046567305324,0.022235844594884535
7.957,311,7,957000000,,0.0070055959572617255,0.0018685609579046783,0.029438267685047703
7.961,312,7,961000000,,0.006175545885876923,0.000978444682589191,0.02625034762746742
7.978,313,7,978000000,,-0.002988169318323663,-0.0036040827680053067,0.014754957471017793
7.9830000000000005,314,7,983000000,,-0.009573422009191675,-0.005852357042181504,0.0009090041143979821
7.994,315,7,994000000,,-0.0024577171450794535,-0.00014997279942361667,0.012914733890193764
8.01,316,8,10000000,,0.005416947472090135,0.0036763620315842576,0.023786301188911618
8.014,317,8,14000000,,0.007123963597343824,0.002175075030481999,0.030858326758926025
8.02,318,8,20000000,,0.002802922938305739,-0.0018803311860659628,0.023481918732034368
8.034,319,8,33000000,,-0.00449171395216722,-0.0032099863943742795,0.010990553425956895
8.052,320,8,52000000,,-0.004827873665521808,-0.0009566918700486798,0.007035919847724059
8.053,321,8,53000000,,0.0014945141068003337,0.00242963282413171,0.014277875127605144
8.063,322,8,61000000,,0.0036927990555246128,0.0015039680495823491,0.021714015800764597
8.086,323,8,85000000,,0.002777882961180503,-0.0018687855458761442,0.025557890813898754
8.087,324,8,87000000,,-0.005417616787970489,-0.00616744937544453,0.012566660045478961
8.093,325,8,93000000,,-0.006609693985503783,-0.005251156342063532,0.01025031403660348
8.109,326,8,108000000,,-0.0004891546871486599,0.002479615466159422,0.00986106927790259
8.113,327,8,112000000,,0.004442745277880557,0.005531067156710078,0.017429589495676467
8.122,328,8,122000000,,0.004478195076469999,-0.0005044870716038839,0.02636638319120349
8.136,329,8,136000000,,0.00017848113501007265,-0.004270043987847856,0.024038281470351808
8.141,330,8,141000000,,-0.0046714615688208715,-0.0035285326218061517,0.014032233019610707
8.152,331,8,152000000,,-0.0039946740853514335,0.0006285981568138915,0.007789206828847484
8.166,332,8,166000000,,3.476192294636052e-05,0.0021405384473184327,0.009240386992178107
8.173,333,8,172000000,,0.003980589239019857,-0.00020363329463966634,0.020742737865902194
8.18,334,8,180000000,,0.00275896079062821,-0.0032983274714175875,0.027395324835616797
8.199,335,8,198000000,,0.0012498709677483053,-0.0035950994865762485,0.027318807003397505
8.203,336,8,203000000,,-0.005497858675544585,0.00018606536404764448,0.00846173909894532
8.212,337,8,212000000,,-0.00465624892763648,0.0021764131451792136,0.004395803512890317
8.242,338,8,242000000,,0.0013075036661724408,0.0008322574494527145,0.011692958957816357
8.243,339,8,243000000,,0.009836895617050983,-0.004943408967521458,0.042304437351444346
8.245,340,8,244000000,,0.010068105835058612,-0.0050850708316986445,0.04594256201592822
8.252,341,8,252000000,,0.0033308060465908167,-0.003971954841490212,0.028051152686352554
8.27,342,8,270000000,,-0.005385209599108664,9.77890625923788e-05,0.010679902075201086
8.271,343,8,271000000,,-0.007943894107213816,0.0034654464078209416,-0.003949542984088561
8.282,344,8,282000000,,-0.0004208073299908166,0.0011103470658372556,0.014614031095076752
8.291,345,8,290000000,,0.004407810025271916,-0.0028397080046944608,0.026354722295815203
8.301,346,8,300000000,,0.0006651548071938318,-0.0032929409839150964,0.024903372349236452
8.322,347,8,321000000,,-0.0016554730227000803,-0.001790574758892851,0.021534407903345154
8.322,348,8,322000000,,-0.004476066471221441,0.004240516082832425,0.0004278196779839427
8.331,349,8,331000000,,-0.0014325780960956708,0.0026518707528254506,0.008798144842321332
8.345,350,8,344000000,,0.0020295259040266104,-0.0016424729582682571,0.01815900667362713
8.359,351,8,359000000,,0.0010669761004848813,-0.005001769350562638,0.029711137152824862
8.361,352,8,361000000,,5.911794656833372e-05,-0.004350539234244182,0.030955919277585953
8.374,353,8,373000000,,-0.002423173985005486,0.0006115997591252457,0.015982138008991176
8.384,354,8,384000000,,-0.0020477840029743915,0.003921729292069311,0.007450848357056394
8.394,355,8,394000000,,0.0011166024462770671,0.0009407540639734153,0.012128882507833838
8.402,356,8,402000000,,0.0021864996633256563,-0.0034430537152196094,0.021470876809487893
8.412,357,8,412000000,,0.00031779848625083256,-0.004050354623533691,0.024860462165692043
8.433,358,8,433000000,,-0.0024137192865138577,-0.0004203299756577682,0.020072085515949745
8.435,359,8,435000000,,-0.003567644753162463,0.005864835343704269,0.005610950091353928
8.442,360,8,441000000,,-0.0013596725707778461,0.0048587438917839215,0.009531760167364789
8.456,361,8,456000000,,0.001897031809116568,-0.0015841664011373797,0.016680866313083742
8.461,362,8,461000000,,0.002909736068967211,-0.0065558069565770745,0.02435897289070449
8.473,363,8,473000000,,-0.001481615066196777,-0.002761015862129711,0.02275214247920665
8.483,364,8,483000000,,-0.002891475424321107,0.0023842103744795935,0.016944798472631528
8.491,365,8,491000000,,-0.0006895408452393545,0.004604601492759316,0.01207198522665065
8.51,366,8,510000000,,0.0013983082432115971,0.0015325535543797182,0.013888129516397063
8.514,367,8,514000000,,0.0025227227500615058,-0.004974718739219238,0.020564918003294963
8.522,368,8,522000000,,0.0009278297613630325,-0.006864569013562824,0.023700380726889958
8.534,369,8,534000000,,-0.002743759377201421,-0.0010154136672892796,0.020712444102390926
8.544,370,8,544000000,,-0.0026996223614256525,0.005089713634955476,0.01573570563195159
8.553,371,8,553000000,,0.0008983967168624245,0.004634637475295909,0.013950341993278492
8.56,372,8,560000000,,0.0023446919395683097,-0.0004093788041408175,0.016285283902021108
8.572,373,8,570000000,,0.0001923996134022539,-0.0051175139459601685,0.019879598379901053
8.583,374,8,582000000,,-0.002309209099384049,-0.0054968605417833665,0.021156568058262937
8.593,375,8,593000000,,-0.002005613624486909,0.0018583587220168335,0.018343328781888157
8.603,376,8,603000000,,0.0004961863929226122,0.005180098094835266,0.01681249978461108
8.613,377,8,613000000,,0.0020623516120864883,0.002401763131648048,0.01734145589238001
8.639,378,8,639000000,,0.0008417943006158641,-0.0034812930579465823,0.017998286017647636
8.641,379,8,641000000,,-0.0028375567991311247,-0.007592297263676215,0.016714726587666484
8.642,380,8,642000000,,-0.0029198967195482846,-0.007300874745555224,0.018277696296006285
8.652,381,8,650000000,,-0.0013539852488733974,0.0008309003821816714,0.018655713317056954
8.661,382,8,660000000,,0.001169515278084271,0.004478531375424236,0.019334227484948285
8.672,383,8,672000000,,0.001715903143682155,0.0036427079890006637,0.020230381074266335
8.681000000000001,384,8,681000000,,-0.0004648786183927917,-0.005251094596483191,0.015825216788029284
8.691,385,8,691000000,,-0.001990018047031646,-0.0030918241354043778,0.01557390612642695
8.7,386,8,700000000,,-0.0013292706181490092,0.0020698999741472074,0.017380503391365876
8.715,387,8,715000000,,0.0019643148677167405,0.0031517236674726903,0.02048311378769785
8.721,388,8,721000000,,0.0029979724138535753,0.0015025638591369562,0.022135314374697512
8.731,389,8,730000000,,-0.0001216451774478924,-0.0020633437542618344,0.017851204088849992
8.743,390,8,743000000,,-0.002156887845880204,-0.0021656559411339063,0.014780505609296224
8.757,391,8,757000000,,-0.0019720445165054418,0.0003840817157418231,0.01411812689128189
8.765,392,8,764000000,,0.0009094329947603762,0.004363111510274674,0.019479894864896097
8.771,393,8,771000000,,0.003045053615032773,0.003130926445844928,0.024008839011055105
8.783,394,8,783000000,,0.001680744454185565,-0.0006449353274501587,0.021810052133034108
8.794,395,8,792000000,,-0.001636105899293618,-0.0037157972257249655,0.014572983726516053
8.806000000000001,396,8,802000000,,-0.003145442752199099,-0.00048652020929562103,0.008747818706421606
8.811,397,8,810000000,,-0.0007572404033997406,0.002478907650221192,0.015399410260511504
8.821,398,8,820000000,,0.0024660200436048886,0.0024098646311349076,0.023097474708970944
8.832,399,8,830000000,,0.002507676974932504,0.0005571800052540546,0.024440702559559657
8.847,400,8,847000000,,-0.0006976713732728866,-0.0017763640452564968,0.017474938046846744
8.852,401,8,852000000,,-0.0038326495153796544,-0.002293534867144184,0.007419540853007445
8.861,402,8,860000000,,-0.0017289534976753355,0.001513948222682194,0.01067916705911498
8.872,403,8,870000000,,0.0018939734264163885,0.0027039085994589093,0.020898375954140458
8.885,404,8,885000000,,0.0030443317315582818,0.0013959607076508632,0.026190717983869516
8.895,405,8,895000000,,0.0015599962903748337,-0.0011745082390009222,0.026342632916855013
8.901,406,8,900000000,,-0.0021809890359052423,-0.001857031169911664,0.012058195992393106
8.911,407,8,911000000,,-0.0021904307820885113,0.0009185760184647947,0.009675799610941338
8.925,408,8,925000000,,0.0005076596931369343,0.0028299165543872644,0.01588908221391283
8.94,409,8,940000000,,0.003878918948714515,0.0006275118232910953,0.03230034243823576
8.942,410,8,942000000,,0.00365840462623787,5.4778910983991486e-05,0.03456713845584314
8.954,411,8,954000000,,-0.0004922920889454758,-0.0007667479705014014,0.01727535779306555
8.961,412,8,960000000,,-0.0033120788776792548,0.00030888358034824107,0.004047475678845558
8.99,413,8,990000000,,-0.0008353310551882778,0.0024421962435604854,0.009422599355758954
8.996,414,8,996000000,,0.006359859462168049,0.003796564358472896,0.04198269507956698
9.002,415,9,1000000,,0.006503805121525391,0.0032412621793695045,0.046824244177645746
9.01,416,9,10000000,,0.0031643587774140254,0.0009271149991250211,0.031268011476646596
9.013,417,9,12000000,,-0.0020047022129869845,-0.0015296081229578956,0.007193486368800128
9.022,418,9,22000000,,-0.0030099597225726107,-0.00018207774583124496,0.0036827704270058215
9.033,419,9,33000000,,0.00042115028297824914,0.0027777634495553807,0.015491436054893226
9.043,420,9,42000000,,0.0032803884794658815,0.002405347621265668,0.028825058117002755
9.052,421,9,52000000,,0.0020594851747227087,-9.983602474264441e-05,0.02794307219568204
9.067,422,9,67000000,,-0.00011639376707477957,-0.0004445344297229403,0.020323281756969735
9.075,423,9,75000000,,-0.001844854133683869,0.0008991852609390883,0.00907674047429241
9.082,424,9,82000000,,-0.002359122538369651,0.0026087494565648203,0.0005225393574042059
9.092,425,9,92000000,,0.001102295571247116,0.0037155437404059665,0.012570003147032716
9.102,426,9,102000000,,0.004101459257739191,0.001551864521938639,0.031895309581150055
9.127,427,9,127000000,,0.0019373932815339254,-0.0004939877122647129,0.02797171998430581
9.129,428,9,128000000,,-0.0036638460509532717,0.0002269753422486703,-0.006507724753378463
9.131,429,9,131000000,,-0.003910308897700147,0.00039792631635786595,-0.008271063573112247
9.141,430,9,141000000,,0.0006610807550066044,0.0025020764696070206,0.018353886284394827
9.161,431,9,161000000,,0.002672186853656451,0.0014065945710593835,0.028719942420370126
9.165,432,9,165000000,,0.0022633319399332063,0.0005607771952318864,0.03026855655176308
9.172,433,9,172000000,,0.0002543924907247526,0.001394710082561596,0.01530940481626486
9.182,434,9,182000000,,-0.00017997903019768542,0.0027884860005613988,0.008817651363345447
9.204,435,9,203000000,,0.0013806774148156697,0.0023767232107815596,0.015147631114727167
9.205,436,9,205000000,,0.0030537302211174388,0.0004746804206078089,0.031919130518610506
9.212,437,9,212000000,,0.002654365031624314,0.00016846375955983928,0.031347185331353944
9.229,438,9,229000000,,-0.0002993816934682735,0.0016755379480351568,0.017239444955974736
9.233,439,9,233000000,,-0.0017587130117258224,0.003634883637661513,-0.00043998179714799246
9.25,440,9,250000000,,-0.0005224070485025866,0.004064259421861895,0.005655422888060313
9.251,441,9,251000000,,0.0012095021496006605,0.003528189757352424,0.013222821210694402
9.263,442,9,263000000,,0.0036898393993944323,0.0019971251926849684,0.030217543099407274
9.273,443,9,273000000,,0.0032549801344791307,-0.0004580303354947482,0.03676496626370107
9.283,444,9,283000000,,-0.000559740091068132,0.0015082375948933403,0.012205520546744952
9.293,445,9,292000000,,-8.831959923581321e-05,0.0034813303389714433,0.008476647578164465
9.301,446,9,301000000,,0.0015965250683490117,0.002997231761537317,0.0159937673351227
9.32,447,9,319000000,,0.001835174422572987,0.0008756141715718507,0.025530611698351358
9.324,448,9,322000000,,0.001330227410304931,0.000412524701086844,0.028529088838550654
9.331,449,9,331000000,,0.0005630121602705682,0.002085312716209986,0.01786714327374228
9.341,450,9,341000000,,0.001013251777995643,0.0036855878570150177,0.011672571521966768
9.352,451,9,352000000,,0.001908274878057122,0.00304341416138219,0.014651770783172369
9.361,452,9,360000000,,0.0017435776667528947,0.001255725283402627,0.022148498963066587
9.371,453,9,371000000,,0.0008635017461612257,0.0014545019897564074,0.022407241434956537
9.388,454,9,388000000,,0.0007676300817151269,0.0028539294714844277,0.018005911528956364
9.397,455,9,397000000,,0.0014805833885065327,0.004406818822659589,0.009926769271159652
9.406,456,9,406000000,,0.002351223166496568,0.003829708898848063,0.011221126262685455
9.412,457,9,412000000,,0.0021695259794723984,0.002129427116356072,0.017584593237102486
9.43,458,9,429000000,,0.0013387677603909382,0.0015745021788606869,0.02037769826038982
9.432,459,9,431000000,,0.001044775156595379,0.0017983614528749893,0.022076672522632568
9.443,460,9,443000000,,0.0010844583063822045,0.003558673436966576,0.014960141253891002
9.456,461,9,456000000,,0.0021101923564180334,0.0037763485243086127,0.014095951901472725
9.468,462,9,468000000,,0.0025310042008962713,0.003116536115523665,0.016306190533780796
9.472,463,9,472000000,,0.001757276343039592,0.001992337436695607,0.02056360492252529
9.482,464,9,481000000,,0.0010717951389874049,0.0024843812050457225,0.0186641382332966
9.491,465,9,491000000,,0.001691550956050362,0.003418447343050501,0.016766694563443818
9.505,466,9,505000000,,0.002605153463282598,0.0032042284947265062,0.016493583730310513
9.511,467,9,511000000,,0.0025843495354092956,0.0029309478307536097,0.017488096991177815
9.522,468,9,521000000,,0.0012467007045544759,0.0028334482955983797,0.01722800986940909
9.531,469,9,530000000,,0.0010823818815340566,0.0034157626746047255,0.016738809618237815
9.543,470,9,543000000,,0.0019515778105602107,0.003629534120433592,0.01705446215450024
9.551,471,9,550000000,,0.002864042595239889,0.0032035989689773257,0.018368091181199864
9.563,472,9,563000000,,0.002538648738417716,0.0026931486803960358,0.01863286586652335
9.582,473,9,578000000,,0.0014163933727828109,0.003154428067765159,0.016510557438731865
9.585,474,9,585000000,,0.0005949467354598886,0.004069154751205702,0.013870747086298985
9.592,475,9,592000000,,0.0016787476881466,0.004209493716505464,0.015115531585709996
9.601,476,9,601000000,,0.0031288350455523804,0.0032233997319804295,0.019071044503868206
9.614,477,9,613000000,,0.00270607037853819,0.002551136515010084,0.01995104749290566
9.64,478,9,638000000,,0.001614168717846027,0.0033913951202855595,0.016708099503777274
9.647,479,9,647000000,,0.0004103011711773614,0.005266802741096935,0.0057484438498416335
9.649000000000001,480,9,648000000,,0.0009733726838558328,0.005006767084987767,0.008507871213214502
9.658,481,9,658000000,,0.0012407420987422865,0.005067459176051415,0.009985794201800013
9.667,482,9,668000000,,0.0030570199152587353,0.0033865034768759076,0.021814436665087533
9.678,483,9,678000000,,0.004121603009918879,0.0025212493431407915,0.02827539467427087
9.687,484,9,687000000,,0.004550781527989828,0.003315055513010059,0.02670155222219639
9.691,485,9,691000000,,0.002436261060311313,0.004799893594229807,0.013568141306848469
9.703,486,9,702000000,,0.0021722680351188035,0.0037423423049625336,0.015998135890928356
9.715,487,9,711000000,,0.002567112797456007,0.002333832006492481,0.02256704096109241
9.725,488,9,725000000,,0.0026790744622368513,0.0025488877709881792,0.025494722831306493
9.733,489,9,733000000,,0.002222589951950029,0.005223189496736816,0.014587656336582433
9.741,490,9,740000000,,0.002578111853302714,0.006439853616884653,0.0078036585600178565
9.752,491,9,750000000,,0.0033401063872821857,0.004295073083291419,0.013837479036981626
9.763,492,9,763000000,,0.0030869400180995755,0.002459744029343444,0.02041793354899213
9.773,493,9,773000000,,0.0027550267973161305,0.0020454860502944934,0.024610362770704608
9.783,494,9,783000000,,0.0021526926659128386,0.0020668514620764238,0.02711717820903148
9.792,495,9,792000000,,0.0018809450640110996,0.0062192642546109525,0.01437956761155701
9.807,496,9,805000000,,0.003405978289816376,0.006924264946566321,0.0016519323284652776
9.814,497,9,814000000,,0.003926527188536189,0.0046663020995581506,0.007627803737189076
9.823,498,9,823000000,,0.00361665821021891,0.0025040357052292413,0.021551427392174527
9.831,499,9,831000000,,0.002927195550231856,0.0019508921455077509,0.0273309648965141
9.845,500,9,844000000,,0.002150368808032684,0.005119127329065644,0.01877689069281363
9.865,501,9,865000000,,0.003408533081771648,0.007522418287845084,-0.0012645272393283502
9.871,502,9,870000000,,0.00322473140791226,0.005579064787507946,0.003683985159791403
9.874,503,9,874000000,,0.0031016965095362666,0.003966386006184729,0.01564383009553627
9.884,504,9,884000000,,0.002954597694683985,0.0032222006262050233,0.02262374526870148
9.907,505,9,906000000,,0.0037663451233613606,0.005775875840537799,0.01478157622053533
9.909,506,9,909000000,,0.004223559902193849,0.008315658364070395,-0.0046081493398760776
9.911,507,9,911000000,,0.004101719520242199,0.007917710028467181,-0.0013963462682505812
9.927,508,9,927000000,,0.00242447464195638,0.0025072309966133605,0.025311206441749556
9.933,509,9,933000000,,0.0020603401258225216,0.0012711210987574884,0.030634455060991272
9.948,510,9,948000000,,0.003261794377027739,0.006212077136604929,0.017003037569104484
9.955,511,9,954000000,,0.005283327627116885,0.010770760539500702,-0.001332421141537976
9.962,512,9,962000000,,0.005706159767544534,0.007319400824229796,0.004022033889704568
9.979,513,9,978000000,,0.0035156660803947323,0.002516396088931897,0.01807276622232823
9.982,514,9,982000000,,0.0006200224136602593,-0.00013039018680039913,0.034977559360614974
9.991,515,9,991000000,,0.0015705684303569866,0.004937299320409403,0.020597883724597588
10.011,516,10,11000000,,0.006021066929939992,0.008955558820728654,0.0074731445252537165
10.019,517,10,19000000,,0.0080082187098919,0.008969103128670618,-0.0007845269667958732
10.021,518,10,21000000,,0.005513235466007862,0.0051177471190478885,0.007923226930665717
10.035,519,10,35000000,,0.0011312041692119789,0.0026914585890608113,0.023725736124388885
10.043,520,10,43000000,,0.0007278580599991598,0.0042293535606452645,0.02529708452498991
10.072,521,10,71000000,,0.005594383987028837,0.00823473583818355,0.011810581920043361
10.075,522,10,75000000,,0.00831417018729588,0.00993062350041933,-0.010128694911323066
10.077,523,10,77000000,,0.007185405214026827,0.009513433388076191,-0.004443523848917219
10.082,524,10,82000000,,0.005205735806348377,0.007305524941350977,0.009557906401119753
10.094,525,10,92000000,,0.0023446998277322703,0.0039237988458748,0.022016920316130117
10.113,526,10,111000000,,0.007513793147446791,0.006929399590777208,0.006962466671625478
10.115,527,10,115000000,,0.009182055619173728,0.008208375006440404,-0.001174466908063776
10.121,528,10,121000000,,0.007231393426617636,0.006552761827287222,0.006975700036325194
10.132,529,10,132000000,,0.001309593336295595,0.004028162391564151,0.019057838787353454
10.161,530,10,161000000,,-0.00039639288163362263,0.005546099468152349,0.023002609160043486
10.163,531,10,163000000,,0.009545304322218985,0.01047925833277778,0.006492583992324552
10.164,532,10,164000000,,0.01000781686613176,0.010760573934656716,0.0061388927805604565
10.174,533,10,174000000,,0.009382403434684298,0.007211157722199286,0.007892825062357556
10.201,534,10,200000000,,0.003823260899579793,0.002914088669611292,0.015453016684369603
10.205,535,10,204000000,,-0.003923651944022404,0.0014358508528315578,0.032871591339605155
10.206,536,10,206000000,,-0.0027152352548211675,0.0020046103243910665,0.03107376210999835
10.211,537,10,211000000,,0.0021598482004042893,0.0054532312693145735,0.020779417137947398
10.223,538,10,221000000,,0.008442373137117664,0.00785961829090942,0.009289338236038502
10.231,539,10,230000000,,0.00640894305900424,0.0070296926487459985,0.011379640249436163
10.249,540,10,240000000,,6.161526410697338e-05,0.006432659393863949,0.020242128360416167
10.255,541,10,255000000,,-0.001309710991678724,0.006739687633816056,0.025734891094207124
10.268,542,10,267000000,,0.005333254767416354,0.007876987408127444,0.016530974139380983
10.275,543,10,274000000,,0.014333712361218406,0.007898718011871624,0.002841028766876974
10.285,544,10,285000000,,0.008861865112565166,0.00445561833319855,0.006664617056767352
10.291,545,10,291000000,,-0.00028953609253219194,0.00440634915068442,0.0163888721272758
10.312,546,10,312000000,,0.0009306977686539888,0.01110013835989454,0.019589365644659296
10.315,547,10,315000000,,0.00644268877761085,0.01228712625254963,0.016681387965319372
10.322,548,10,322000000,,0.01196967769900247,0.009543440058712934,0.01116965922383184
10.334,549,10,333000000,,0.011218310789770775,0.0026707295074249876,0.008163884198456484
10.349,550,10,338000000,,0.0017415505199258729,0.0032126130235507686,0.013956257277718986
10.357,551,10,356000000,,-0.0029366692522531275,0.011895958762290083,0.01972221144110675
10.361,552,10,361000000,,-0.000563795596346759,0.013808278553857571,0.018735523217272787
10.371,553,10,371000000,,0.012938934878280147,0.0074649492969844355,0.011173803391471226
10.381,554,10,381000000,,0.013183227838737679,0.0016013836023392874,0.008660484229471188
10.395,555,10,395000000,,0.003527883168806768,0.003198555762743735,0.011814534724084669
10.402,556,10,402000000,,-0.0055605836848202,0.00998314653922678,0.017358535077052428
10.417,557,10,414000000,,0.00021797557490822218,0.014383679330936767,0.0171854328704224
10.433,558,10,432000000,,0.014411200612231554,0.01274076957142023,0.01265355701553117
10.435,559,10,435000000,,0.024801168664094517,0.006727257621844701,0.0052863600713699554
10.443,560,10,443000000,,0.013273292582246939,0.001139561717559405,0.009455623728678253
10.454,561,10,454000000,,-0.0010214371659857287,0.00527628574763727,0.013915483055731648
10.463,562,10,463000000,,-0.006172759619291705,0.012341832743272926,0.016856819202813345
10.471,563,10,471000000,,0.005130743973215418,0.014056795170557568,0.0149135067713837
10.481,564,10,481000000,,0.016004123566832142,0.00741903865889542,0.011510226532467915
10.501,565,10,501000000,,0.015330152318484114,-0.00018801339262791705,0.009788795780436788
10.503,566,10,502000000,,0.0010124457739248468,0.0008367381649840855,0.010965967068079174
10.512,567,10,512000000,,-0.005171535440127542,0.010341555281920885,0.014190842945089321
10.529,568,10,529000000,,0.0028449686810330874,0.016666955541283696,0.014320603507488316
10.541,569,10,540000000,,0.01718363619475644,0.011885491352650403,0.012191139346132585
10.544,570,10,543000000,,0.02273986895153331,0.0013492301863086004,0.0095587821399995
10.552,571,10,552000000,,0.011254350326352679,-0.0007090994063663272,0.010703211213344943
10.567,572,10,567000000,,-0.002291260931055715,0.008821184823914911,0.012500842986850613
10.584,573,10,580000000,,-0.006574447719721262,0.01855997724832254,0.014180641792363113
10.59,574,10,589000000,,0.015310908456500384,0.008894664990836666,0.012225489501094366
10.593,575,10,592000000,,0.02115331432956954,0.004691112343085058,0.011771995510504452
10.601,576,10,601000000,,0.012251676702534173,-0.00013256507364774878,0.011672007326612444
10.612,577,10,612000000,,0.0007057768839846788,0.007955191811379492,0.01180511922338634
10.635,578,10,634000000,,-0.0013329880581834479,0.018148030665985047,0.012055961005697391
10.637,579,10,637000000,,0.010077047839869197,0.016215617562302935,0.012299135314558951
10.642,580,10,642000000,,0.016366799392697636,0.008475411587116635,0.01257327500154326
10.656,581,10,655000000,,0.011045518700335471,-0.0022344260070760458,0.012182351235749733
10.668,582,10,668000000,,0.0019275645668771768,0.0024929994958974647,0.011275474430869847
10.672,583,10,672000000,,-0.005175907458635217,0.019134712961859177,0.010146837653716378
10.682,584,10,681000000,,0.006018452807830374,0.020703963421750432,0.011045315179385562
10.692,585,10,692000000,,0.01686579888833134,0.006229883081820604,0.012310595589060225
10.711,586,10,711000000,,0.016557731813987016,-0.0076378568071918534,0.013080047025495922
10.715,587,10,715000000,,0.0037827657604146327,-0.004265953081332867,0.012003116457019902
10.722,588,10,722000000,,-0.0024319403252652215,0.011898840325577482,0.010405078697801162
10.732,589,10,731000000,,0.004275364861318269,0.02370567696047121,0.009676605038765995
10.754,590,10,752000000,,0.012485832710280042,0.017466379917520886,0.010765180663305562
10.756,591,10,755000000,,0.020736300930363112,-0.004631450958124617,0.01370825635209616
10.762,592,10,761000000,,0.021874139923428834,-0.007772532831638451,0.014669172639135364
10.775,593,10,775000000,,0.021103288625081942,-0.016049033192642233,0.01579658368244441
10.788,594,10,787000000,,-0.011989590073718852,0.020404840055541613,0.006352715343958426
10.796,595,10,796000000,,-0.024210447608706692,0.033549477791264735,0.004326391783098016
10.815,596,10,815000000,,-0.006093039758499858,0.024459172981206017,0.007532037566825522
10.82,597,10,819000000,,0.017408588440469577,0.010647360725456828,0.012878865122425087
10.824,598,10,824000000,,0.044395062839020435,-0.001414562436284697,0.01845115436102307
10.837,599,10,837000000,,0.025192284250237746,0.0063357011975959665,0.0117053791118098
10.869,600,10,869000000,,-0.005437964623810264,0.00939143171276021,0.006265212329509384
10.873,601,10,873000000,,-0.025373608620869705,-0.015173659724097635,0.009132294888818282
10.875,602,10,875000000,,-0.02643139546366136,-0.013718571126673601,0.010426418950946537
10.88,603,10,879000000,,-0.019716411192380698,-0.007715433575609214,0.010628782052120478
10.882,604,10,882000000,,-0.0067662530228570425,0.0166319185786383,0.009395936216799572
10.895,605,10,895000000,,0.012917813975194908,0.037649121335420845,0.0063350489201798865
10.912,606,10,911000000,,0.025909649452668868,0.0016146505950839357,0.01027837507018603
10.916,607,10,916000000,,0.026101635878514218,-0.011913012536460196,0.013057041564631167
10.922,608,10,922000000,,0.012228270866398586,-0.02163547711601669,0.014798142643286383
10.949,609,10,949000000,,-0.004965292599828253,0.0013807034306394517,0.011986364597919241
10.951,610,10,951000000,,-0.017523895335841158,0.05610032599431529,-0.0009411115816773119
10.954,611,10,954000000,,-0.018344910971382484,0.058896345802747274,-0.0016740542213090626
10.962,612,10,962000000,,0.006919504129115045,0.035778937554398385,0.005996294060993335
10.972,613,10,972000000,,0.029566659677735814,-0.0076718900110215454,0.014484665337796243
10.987,614,10,987000000,,0.013779772518302934,-0.013585566058904805,0.01431782464257958
10.994,615,10,994000000,,-0.0022729319661377763,-0.0008378468241752104,0.01118297158777437
11.003,616,11,3000000,,-0.006292486637793939,0.031174057283130063,0.0036639377496291425
11.025,617,11,25000000,,0.00949817112292179,0.03414031979890447,0.003661518499867178
11.032,618,11,32000000,,0.030942143167373988,-0.004134898831388872,0.01513332112324739
11.037,619,11,36000000,,0.033326933828684596,-0.016064431322300905,0.020193457365770162
11.046,620,11,46000000,,0.01703231576334065,-0.010742430657953411,0.01496105796567715
11.063,621,11,57000000,,-0.001458970850927624,0.008696547776413384,0.007532183296216632
11.063,622,11,63000000,,-0.009021846663814823,0.03485303395852456,-0.0020009206019369064
11.074,623,11,74000000,,0.005893664494016078,0.02557802164502941,0.004658154398683223
11.082,624,11,82000000,,0.017119921822204023,-0.0007460680306428866,0.013386044132370434
11.094,625,11,93000000,,0.008602073221394113,-0.005358111504709245,0.01441202363548355
11.107,626,11,106000000,,0.0015057020639373496,0.011495100953566643,0.00996129076858443
11.112,627,11,111000000,,0.004897129775285357,0.033050294980333794,0.0030395683201341894
11.121,628,11,120000000,,0.02091611317417946,0.022729894916019122,0.0034289923508711295
11.132,629,11,130000000,,0.015981261322321784,-0.0030421874833645862,0.01003547422639417
11.152,630,11,152000000,,-0.0004980516923915983,-0.010488702028090102,0.013981996187890422
11.155,631,11,155000000,,-0.009263444711723735,0.006426059814528158,0.01413234318520773
11.163,632,11,163000000,,-0.001580631021593313,0.027899870958491647,0.00807683801982273
11.174,633,11,174000000,,0.018293940130123337,0.037852009648940754,0.0028881920143514206
11.196,634,11,194000000,,0.029892083657792102,0.015892860948118766,0.003660893701698975
11.198,635,11,198000000,,0.017375144493743534,-0.03304158864111865,0.016212945278232027
11.203,636,11,203000000,,0.009273754438482745,-0.039256885164285465,0.020496212557165716
11.214,637,11,213000000,,-0.008725112851750896,0.008977314860105216,0.009942091929639574
11.222,638,11,221000000,,0.0012277091780319195,0.04597344039008001,0.0018142922675591366
11.243,639,11,243000000,,0.02731108271543279,0.030958450497391085,0.001473514786012653
11.247,640,11,247000000,,0.03873913417988814,-0.00971976987184063,0.008951962463432106
11.252,641,11,252000000,,0.03154028891813347,-0.031752577583404135,0.015326025522355735
11.262,642,11,262000000,,-0.009628967629715532,-0.009086733597421862,0.014158967970768876
11.28,643,11,279000000,,-0.008274217251860963,0.028398058831949173,0.007414620367036329
11.296,644,11,296000000,,0.01425217987697854,0.05693078479113152,-0.0032332919639245228
11.302,645,11,301000000,,0.03712031876197638,0.029468954832749188,-0.003637964777474134
11.307,646,11,303000000,,0.036820699268030284,0.010978136122007813,0.003820773697968294
11.322,647,11,322000000,,0.016466301873264463,-0.020520485941335237,0.014512683323940623
11.326,648,11,326000000,,-0.005517038092181906,-0.018346540243112497,0.0195470457261141
11.331,649,11,331000000,,-0.0024636010709589637,0.008846910882245512,0.009540629502129305
11.341,650,11,340000000,,0.015933658605713767,0.032129203322422424,0.0020063432523508284
11.353,651,11,353000000,,0.020933689134785594,0.01807002662248941,0.002988753904220265
11.368,652,11,368000000,,0.006234274561344812,-0.010397856696701555,0.011773566610448705
11.372,653,11,372000000,,-0.006283906914150636,-0.01919099804081789,0.018018493664741175
11.381,654,11,381000000,,-2.376761127765442e-05,0.019767112827029906,0.011167846525081848
11.404,655,11,403000000,,0.018932155116831342,0.037875647075022084,0.004343215209473006
11.407,656,11,407000000,,0.04028662329901414,0.029544684716524987,-0.007768605361501479
11.412,657,11,410000000,,0.03363385810834426,0.009711894777974003,-0.0012953771314385687
11.424,658,11,423000000,,-0.002185651788346704,-0.013923640490003844,0.011649370941932968
11.433,659,11,432000000,,-0.012396470775768047,0.004632434826041393,0.015084712918470022
11.447,660,11,447000000,,-0.002532796407969433,0.026984872488302843,0.012159898834575578
11.454,661,11,454000000,,0.030923216037765495,0.050740068780854755,-0.0016919681284421895
11.478,662,11,476000000,,0.04198076871826808,0.019907878024236048,-0.0039518910938498575
11.486,663,11,486000000,,0.012222853570492607,-0.049024505960475404,0.013641416072239121
11.492,664,11,492000000,,-0.0046889593291227424,-0.05930120031591421,0.02574847901173105
11.494,665,11,494000000,,-0.013398771287731655,-0.03354289759770167,0.02271188985304573
11.502,666,11,502000000,,-0.004748641330114857,0.023144047456173475,0.009599910753582908
11.515,667,11,514000000,,0.023530069376718997,0.0462281445220118,-0.0018953325163236778
11.529,668,11,529000000,,0.035428154466525544,0.031383558599899296,-0.004261880353498504
11.532,669,11,532000000,,0.018979298707005866,-0.015825995625320277,0.006694235894331491
11.541,670,11,541000000,,-0.006363469115535675,-0.013430796186311031,0.014335448676628615
11.552,671,11,552000000,,-0.00787981867168635,0.0129672072715709,0.013184782080255086
11.564,672,11,564000000,,0.022589482525100325,0.0486045192799496,0.002195687767844734
11.571,673,11,570000000,,0.045814584595005294,0.03678638628403466,-0.005845771805403022
11.587,674,11,587000000,,0.02513912522849697,-0.0058778507907649435,0.0005237438841262376
11.607,675,11,606000000,,-0.009468061842855834,-0.040829950952635155,0.014478819617045002
11.608,676,11,608000000,,-0.03390438924923128,-0.015205179429148327,0.029375997161123713
11.612,677,11,611000000,,-0.03180500067771063,-0.007586077571669278,0.026883023695520203
11.63,678,11,629000000,,0.020788044594438955,0.04866946160475619,0.0017125800722916917
11.633,679,11,632000000,,0.05186512151454301,0.07331569586996922,-0.02244036416894235
11.645,680,11,645000000,,0.045511311479561715,0.03722436026338416,-0.012832983387015884
11.652,681,11,652000000,,0.014137951896800473,-0.03454446556793381,0.012190349487533947
11.676,682,11,676000000,,-0.01523892611082419,-0.01928649915132319,0.018105598853187188
11.685,683,11,685000000,,-0.012705492219257875,0.05155621962291436,0.008725981655009374
11.699,684,11,698000000,,0.005246447518232247,0.07658693784599732,-0.008075278888226567
11.704,685,11,702000000,,0.032796789905764324,0.05274628340843325,-0.01598770338037303
11.708,686,11,708000000,,0.04142802970494635,0.021757739330604035,-0.009160044045364524
11.725,687,11,725000000,,0.03131434095869935,-0.01301671909588313,0.007166220632654152
11.727,688,11,726000000,,-0.001144721390128424,-0.02803120093482464,0.03353499837060869
11.747,689,11,746000000,,-0.0014743144949956738,-0.021486350426527925,0.023653835633003606
11.75,690,11,749000000,,0.019967052806226154,0.05264070419805513,-0.025620303262994915
11.767,691,11,765000000,,0.017001452596314026,0.06177193113617904,-0.03408597957710424
11.778,692,11,775000000,,0.008162271028323898,0.0017379659170821266,0.008898821886529129
11.787,693,11,787000000,,0.014953853939434963,-0.04008539436040577,0.045835236542248636
11.793,694,11,792000000,,0.020925533864005717,-0.020054564254515725,0.04507940110369113
11.811,695,11,811000000,,0.007921700107911375,0.0477964975768564,-0.03557414092939848
11.816,696,11,815000000,,-0.0002054845173352568,0.05021132640300357,-0.04584399868001188
11.837,697,11,836000000,,-0.008389453852890368,0.05193323103164124,-0.05487688302397298
11.838000000000001,698,11,838000000,,0.013814222576051843,-0.007979330618549177,0.04717635370016615
11.857,699,11,857000000,,0.02473467069361773,-0.016042253024911912,0.06403402978077133
11.867,700,11,865000000,,0.04174475513647873,0.019255340675763885,0.009392338203183859
11.879,701,11,879000000,,0.03374745563177602,0.02939113439282355,-0.04023659792044343
11.882,702,11,880000000,,-0.0017337429590153774,0.007959666788593056,-0.04070723672760823
11.893,703,11,893000000,,-0.009483731237690862,0.004356945658366751,-0.04027821026867462
11.903,704,11,901000000,,-0.023677326142858092,0.00793805573504941,0.023147369898029124
11.914,705,11,914000000,,-0.0018631805011887909,0.019941407138299838,0.05799511326836404
11.92,706,11,919000000,,0.052024571532360835,0.045217337924216165,0.0382828426528643
11.926,707,11,923000000,,0.06742105188198316,0.04554375842331672,0.009201841678831535
11.928,708,11,928000000,,0.06787529002084079,0.029507011306556967,-0.007875607939905382
11.94,709,11,939000000,,0.049640182206690975,-0.004094031406595464,-0.013562412978674887
11.948,710,11,946000000,,-0.0076012567333619,-0.036786105335433666,-0.0060687443965333765
11.963000000000001,711,11,962000000,,-0.058862746246931955,-0.03489554475767742,0.01710474577391563
11.969,712,11,969000000,,-0.051235377238524574,0.03259142890098991,0.03618101406786589
11.985,713,11,985000000,,-0.01729189107442805,0.07269647679183369,0.03006320599044532
11.994,714,11,992000000,,0.09445612260165576,0.08147634084263602,-0.02218747259797116
12.006,715,12,5000000,,0.11653929484541764,0.053561660798768285,-0.04544732385771477
12.007,716,12,7000000,,0.040987207802320576,-0.05457106179529064,-0.011751115952591262
12.028,717,12,28000000,,-0.026489703136297886,-0.056444772118774994,0.015620256836319513
12.034,718,12,34000000,,-0.06874143954816744,0.020594553765020382,0.04265625850162558
12.054,719,12,54000000,,-0.04323648294294437,0.06927751752655414,0.028631483841172423
12.073,720,12,73000000,,0.08328505120171978,0.09793635036762688,-0.04965039843010044
12.079,721,12,79000000,,0.11513056993182935,0.059453357256856375,-0.06410593589968616
12.099,722,12,99000000,,0.12464604035284743,0.03826625202797748,-0.03507227478554176
12.102,723,12,101000000,,0.0451589631940429,-0.11887556079098521,0.06469456026299036
12.108,724,12,108000000,,0.03259256100693533,-0.1378698102554215,0.07818754291084318
12.11,725,12,110000000,,-0.011655846519282892,-0.09346697457431613,0.022730766269817293
12.121,726,12,113000000,,-0.02649741053415408,-0.06886982233775013,0.006490144636442707
12.126,727,12,124000000,,-0.03305535237396986,-0.05562712378373402,-0.00089665117871085
12.132,728,12,131000000,,-0.0678667408098802,0.05892152241122739,-0.016551245288597416
12.133,729,12,133000000,,-0.07797870523277928,0.132764353749377,-0.005999956783016014
12.144,730,12,144000000,,-0.011857793949948882,0.1139490983716189,0.012664970452774038
12.152,731,12,152000000,,0.11785414061806027,0.03885035288151955,0.023681495595539115
12.166,732,12,166000000,,0.12322671747224978,-0.03858684118225217,0.010419878907986568
12.174,733,12,173000000,,0.04685612911479225,-0.09625450577142587,-0.01272508442545306
12.19,734,12,189000000,,-0.07993418284713724,-0.05837856340786163,-0.024001648407257936
12.202,735,12,200000000,,-0.07959482999751302,-0.057883104863859516,-0.024178647614171322
12.216,736,12,216000000,,-0.11416823566667186,0.11817771072672381,0.022805998327617205
12.219,737,12,219000000,,0.013411978986503547,0.2126928932552376,0.0613734721818493
12.229,738,12,228000000,,0.055054135359688575,0.21712303046652426,0.04877899801889862
12.243,739,12,243000000,,0.16068466374395457,0.026655944289384614,-0.009628961081841858
12.254,740,12,254000000,,0.18172935461997927,-0.19251692681691146,-0.059282226523991954
12.259,741,12,258000000,,0.05188524488316436,-0.25125700381426436,-0.04311787832039227
12.266,742,12,265000000,,-0.048232122184095685,-0.2103263582267091,-0.00735843900523403
12.28,743,12,279000000,,-0.1937919882301233,0.08982023779868703,0.03243735929873259
12.293,744,12,293000000,,-0.17568123611165334,0.23314452794783125,0.037099206573320775
12.296,745,12,296000000,,0.0936477476548917,0.2439105338592042,-0.01703280700154086
12.31,746,12,310000000,,0.21280699520267282,0.10775182013143551,-0.02686025319779073
12.317,747,12,317000000,,0.19809130971337202,-0.06725053809463225,-0.019266378589095856
12.339,748,12,339000000,,-0.011002991623315889,-0.21380426688411253,0.028959182204246647
12.346,749,12,345000000,,-0.24553211844622122,-0.16332671504058005,0.07820023256086694
12.356,750,12,354000000,,-0.267371923134696,-0.07795186213541697,0.0616379400620829
12.37,751,12,370000000,,-0.12493717995603801,0.17221574202820478,-0.010770343375056779
