Time,header.seq,header.stamp.secs,header.stamp.nsecs,header.frame_id,position_controller_output.thrust.num,position_controller_output.orientation_set_point.w,position_controller_output.orientation_set_point.x,position_controller_output.orientation_set_point.y,position_controller_output.orientation_set_point.z,position_controller_output.euler_set_point.phi,position_controller_output.euler_set_point.theta,position_controller_output.euler_set_point.psi
5.67,83,5,670000000,,10.35373846447455,0.9998960441802919,5.955456605086651e-05,-0.0004345425637393031,0.014412094178770775,0.00010657145390737004,-0.0008707115030711693,0.02882514266507758
5.679,84,5,680000000,,10.36207997333428,0.9998912044989199,6.168175645229118e-05,-0.00044366171008242215,0.014743762252126187,0.00011026764976309417,-0.0008890458427909193,0.029488546876549948
5.694,85,5,690000000,,10.3705792146921,0.9998862043895583,6.390125467046071e-05,-0.0004527849496280479,0.01507876566107523,0.00011413313691009443,-0.0009073940779851277,0.030158625626014356
5.7,86,5,700000000,,10.379237606735822,0.999881040734504,6.61675346430567e-05,-0.00046190919783628683,0.015417089265995559,0.00011807678700273779,-0.0009257488527204549,0.030835348843941093
5.711,87,5,710000000,,10.388056472041505,0.9998757104089798,6.845313424731837e-05,-0.000471017491431403,0.01575871793100501,0.00012204404358502811,-0.0009440755052272893,0.031518686460800506
5.72,88,5,720000000,,10.397037250900887,0.9998702102349568,7.063805676231267e-05,-0.000480194945718091,0.016103636476971647,0.00012579206624711752,-0.0009625404504626356,0.03220860840706287
5.73,89,5,730000000,,10.40618116524823,0.999864537170214,7.322596053188717e-05,-0.0004891184629040354,0.01645183000403385,0.00013033835768823127,-0.0009805139702872688,0.032905084613198556
5.74,90,5,740000000,,10.415489555239152,0.9998586879131549,7.580935418846959e-05,-0.0004981275597836531,0.01680328320479016,0.00013485699355950215,-0.0009986621947719826,0.03360808500967781
5.752,91,5,750000000,,10.424962865746142,0.9998526591510234,7.795244779708347e-05,-0.0005075518840986275,0.017157980741579384,0.00013846486566650545,-0.001017629390780036,0.034317579526971
5.76,92,5,760000000,,10.434599601198766,0.9998464480703861,8.097184106930099e-05,-0.0005164185508456625,0.017515908097330994,0.00014382781322955527,-0.0010355152832770987,0.03503353809554843
5.77,93,5,770000000,,10.444398846040826,0.9998400512084927,8.394799082744246e-05,-0.0005254006984478858,0.017877049707365894,0.000149083981395441,-0.0010536350022401642,0.03575593064588041
5.78,94,5,780000000,,10.454362343085254,0.9998334652150015,8.637483462337906e-05,-0.0005348456853912863,0.018241390178470315,0.00015320833149358012,-0.0010726646297830472,0.036484727108437275
5.79,95,5,790000000,,10.46450499872807,0.9998266867072367,8.778784556853651e-05,-0.000545120715282121,0.018608914120100177,0.00015525714580130024,-0.001093319968006345,0.037219897413689286
5.8,96,5,800000000,,10.474769431795034,0.9998197133058722,9.07863578584208e-05,-0.0005541975977223952,0.018979607683604124,0.00016050317446405737,-0.0011116417744009661,0.037961411492106814
5.8100000000000005,97,5,810000000,,10.485154434014193,0.999812541303461,9.384650972991933e-05,-0.0005632281515046035,0.01935345496796495,0.00016585712006638974,-0.001129877887783718,0.03870923927416015
5.82,98,5,820000000,,10.495707452652793,0.9998051671694429,9.624392411973349e-05,-0.0005728509202975168,0.019730440446493722,0.00016984525633738669,-0.0011492767432900155,0.03946335069031962
5.83,99,5,830000000,,10.506399855228867,0.9997975878784114,9.861238335103712e-05,-0.0005825423601037085,0.020110549284062723,0.00017375447189261621,-0.0011688154574537113,0.04022371567105555
5.84,100,5,840000000,,10.517229742265823,0.9997898001697167,0.00010094146556938653,-0.0005923086991655883,0.020493766316202054,0.0001775633495866949,-0.0011885060133724086,0.04099030414683822
5.85,101,5,850000000,,10.528245928824065,0.9997818006521046,0.00010294260626845606,-0.000602415577328529,0.020880076224173438,0.00018068345517622855,-0.0012088674546478298,0.041763086048137985
5.86,102,5,860000000,,10.539381818911524,0.9997735862355103,0.00010503741392181871,-0.0006124795189833697,0.021269464068644963,0.00018397318177950013,-0.0012291501788842278,0.04254203130542513
5.87,103,5,870000000,,10.550521280193559,0.9997651538452361,0.00010760657498880529,-0.0006221098213818945,0.021661914897037265,0.00018821057580117013,-0.001248589695924793,0.04332710984916999
5.88,104,5,880000000,,10.561879104774587,0.9997564997748792,0.00010974689944205654,-0.0006321736492391658,0.022057413039092574,0.0001915522768839581,-0.0012688812355037338,0.04411829160984287
5.89,105,5,890000000,,10.573549284777298,0.9997476206519561,0.00011136184251120278,-0.0006428154445878044,0.0224559432577837,0.00019379758240562305,-0.001290308250961013,0.04491554651791409
5.9,106,5,900000000,,10.584911976891043,0.9997385140600873,0.00011401747732832323,-0.0006523784393048316,0.022857491273440854,0.00019815202898000025,-0.001309628384380033,0.04571884450385398
5.911,107,5,910000000,,10.596695270780913,0.9997291756938012,0.00011590772279765379,-0.000662786934068792,0.02326204087074978,0.00020091729005575058,-0.0013306077635282536,0.04652815549813282
5.9190000000000005,108,5,920000000,,10.60887537377196,0.9997196023815231,0.00011731899898980237,-0.0006737759730635069,0.023669577020306982,0.0002026764082897281,-0.001352728290489259,0.04734344943122095
5.93,109,5,930000000,,10.620527101752053,0.9997097918313851,0.0001197880395870971,-0.0006835582643104734,0.024080085451951616,0.00020658646545267895,-0.0013724892235947024,0.0481646962335887
5.94,110,5,940000000,,10.632627651298177,0.9996997396809333,0.00012166435318523447,-0.0006940376875105972,0.02449354999479745,0.00020925695555467472,-0.00139361902600925,0.04899186583570635
5.95,111,5,950000000,,10.644936532998628,0.9996894429133916,0.00012339713709805613,-0.0007047032050093924,0.02490995572160261,0.00021160959267723043,-0.0014151168156211161,0.04982492816804423
5.96,112,5,960000000,,10.657190368551701,0.9996788984615363,0.0001252875797351977,-0.0007151659116630447,0.025329287622641788,0.00021426563587761396,-0.001436219925617468,0.05066385316107267
5.97,113,5,970000000,,10.669651668081565,0.9996681027874954,0.00012703841446906242,-0.0007258214575723561,0.025751530317682927,0.0002166107068392071,-0.001457704502317626,0.05150861074526197
5.98,114,5,980000000,,10.682233842044873,0.9996570526676434,0.00012874229389313785,-0.0007365426228258564,0.026176668661750543,0.0002188360609437248,-0.0014793206832913327,0.05235917085108245
5.99,115,5,990000000,,10.694935351065142,0.9996457448028867,0.00013039339633828256,-0.0007473292131029719,0.026604687445849838,0.00022092973802951359,-0.0015010676505016153,0.053215503409004425
6.0,116,6,0,,10.707757232187397,0.9996341758991836,0.00013200203903443938,-0.0007581722459728332,0.027035571469215026,0.00022291251947803274,-0.0015229278663962237,0.05407757834949821
6.01,117,6,10000000,,10.720696968384296,0.9996223426635216,0.00013357453390173073,-0.0007690641656778373,0.027469305525366656,0.00022479713007884445,-0.0015448864597945656,0.05494536560303412
6.02,118,6,19000000,,10.733755094233784,0.9996102418011162,0.00013510894452999723,-0.0007800037943075799,0.02790587439891322,0.00022657947369235119,-0.0015669408705588294,0.05581883510008248
6.03,119,6,30000000,,10.74694042131501,0.9995978700192863,0.00013659184299804264,-0.0007909923170437045,0.02834526286222728,0.00022823235049777832,-0.0015890926028263197,0.0566979567711136
6.04,120,6,40000000,,10.760255392743819,0.9995852240242294,0.00013802242099498523,-0.0008020329785953715,0.02878745569416352,0.00022975366784045397,-0.0016113479551217607,0.05758270054659779
6.051,121,6,50000000,,10.773851092986872,0.9995723004179364,0.00013935537639902352,-0.0008132691382449574,0.029232437643518412,0.00023104418007417472,-0.0016339907285561402,0.05847303635700539
6.06,122,6,60000000,,10.787408304328771,0.9995590961168297,0.00014071962524724675,-0.0008244257264486619,0.02968019356936114,0.00023237725345062271,-0.0016564783968624473,0.05936893413280667
6.07,123,6,70000000,,10.800904923949961,0.9995456078518795,0.00014210302831911304,-0.0008354951138667863,0.030130708233640155,0.0002337291281181116,-0.0016787950612380026,0.06027036380447197
6.082,124,6,80000000,,10.814880897593177,0.9995318320443991,0.00014331246590646563,-0.000846875937727925,0.03058396626747899,0.00023468943494964342,-0.0017017258636786278,0.061177295302471624
6.09,125,6,90000000,,10.828597103232811,0.9995177658521175,0.00014457853474716438,-0.000858012903470449,0.03103995259171779,0.00023575262099153574,-0.001724174556691351,0.0620896985572759
6.1,126,6,100000000,,10.8426244345888,0.9995034056742186,0.00014575333315453476,-0.0008693285174767144,0.03149865186850375,0.00023659691633548928,-0.0017469765833422264,0.06300754349935517
6.111,127,6,110000000,,10.85655212673479,0.999488748461223,0.00014695750814131954,-0.0008805535245843903,0.03196004894237766,0.0002374800583591795,-0.0017696011423659406,0.06393080005917971
6.12,128,6,120000000,,10.870807784547763,0.9994737907310044,0.00014807365610076798,-0.0008919687079530195,0.03242412848193572,0.00023814924565179125,-0.0017926019700671108,0.0648594381672199
6.13,129,6,130000000,,10.885182230744466,0.999458529363579,0.00014911975949653055,-0.0009034220869032971,0.0328908752425601,0.00023864974038861667,-0.001815676177170545,0.06579342775394596
6.14,130,6,140000000,,10.899923237831185,0.9994429609911276,0.0001500724015396628,-0.000915054684346381,0.0333602739570046,0.00023892506713638507,-0.001839103875975666,0.06673273874982825
6.15,131,6,150000000,,10.914547754699921,0.9994270826297065,0.00015103038027788527,-0.0009265710691600794,0.0338323094415948,0.00023919204349565063,-0.0018623009305816676,0.06767734108533706
6.16,132,6,160000000,,10.929021585456521,0.9994108910535633,0.00015200321404164086,-0.000937972108297589,0.03430696644808034,0.0002394698077349781,-0.0018852697361863603,0.06862720469094279
6.17,133,6,170000000,,10.944139103094443,0.9993943826433707,0.0001528700470366101,-0.0009497057479860737,0.03478422962517575,0.00023948580555594639,-0.001908897272342024,0.06958229949711567
6.185,134,6,185000000,,10.957395845518178,0.9993775554521435,0.0001538534598361921,-0.0009604051550509971,0.035264083846724865,0.0002397802224411171,-0.0019304669138583066,0.07054259543432603
6.191,135,6,190000000,,10.974202678906492,0.9993604035756783,0.00015450526337453316,-0.0009729652270365885,0.035746513562137386,0.00023925311519465994,-0.001955733139642523,0.07150806243304422
6.2,136,6,200000000,,10.98941823853375,0.9993429263834666,0.0001552532617494674,-0.000984641264161457,0.036231503768614816,0.0002389529008179579,-0.0019792399752489023,0.07247867042374054
6.21,137,6,210000000,,11.004752288573473,0.9993251198442467,0.00015595919879439674,-0.0009963394493738278,0.03671903910387567,0.00023853911631909895,-0.0020027887620587535,0.07345438933688526
6.22,138,6,220000000,,11.020208966150538,0.9993069807862321,0.00015662429953950844,-0.0010080568873397262,0.03720910428975391,0.00023801421499203916,-0.0020263736556671947,0.07443518910294879
6.23,139,6,230000000,,11.035791815699772,0.9992885060529487,0.00015724292870440896,-0.0010197871577911995,0.03770168403772095,0.00023736721719486782,-0.002049981253047133,0.07542103965240136
6.24,140,6,240000000,,11.051497024850184,0.9992696924755134,0.00015782361204477234,-0.0010315437385207873,0.0381967630711792,0.00023661395191616476,-0.0020736389770662613,0.07641191091571331
6.25,141,6,250000000,,11.06732433312596,0.9992505368994405,0.00015837173773145994,-0.001043336804650781,0.0386943261071254,0.00023576417953966286,-0.002097367437462481,0.07740777282335495
6.26,142,6,260000000,,11.08290662040493,0.9992310363915156,0.0001588700796049992,-0.0010549818104909816,0.039194357828837775,0.00023479768961505052,-0.0021207963470500696,0.07840859530579665
6.27,143,6,269000000,,11.099330766169151,0.9992111873115319,0.00015931471371441913,-0.0010669722830787185,0.03969684295315942,0.00023366776581751803,-0.0021449115106105584,0.07941434829350864
6.28,144,6,280000000,,11.11512635797631,0.9991909872750786,0.00015970598961513743,-0.0010786287419983702,0.04020176615880947,0.0002324285584631118,-0.0021683548601198963,0.08042500171696132
6.291,145,6,290000000,,11.131811675253093,0.9991704324560777,0.00016005939692944533,-0.001090629161715597,0.04070911218087997,0.00023105670131128047,-0.0021924823307471557,0.08144052550662495
6.3,146,6,300000000,,11.148232861712378,0.9991495203089135,0.0001603780556338941,-0.0011024769805701936,0.04121886570315732,0.00022959817941281668,-0.002216301710059872,0.08246088959296988
6.31,147,6,310000000,,11.164769277307101,0.999128247566884,0.00016066931324740908,-0.0011143537469967236,0.041731011430659035,0.00022805285506345604,-0.0022401762723873522,0.08348606390646635
6.32,148,6,320000000,,11.181421066373366,0.9991066112057267,0.0001609068624318902,-0.0011262367413434528,0.042245534021871374,0.0002263698570564035,-0.0022640582750253287,0.0845160183775848
6.33,149,6,330000000,,11.198193384968363,0.9990846081884429,0.0001610905889379646,-0.0011381229157153094,0.042762418161237194,0.0002245490693900435,-0.002287941416992234,0.08555072293679541
6.34,150,6,340000000,,11.215078524972329,0.9990622354981082,0.00016122296400702775,-0.0011500038906496462,0.043281648532950974,0.00022259601792153517,-0.002311808966203243,0.08659014751456863
6.35,151,6,349000000,,11.232079157894654,0.9990394901100591,0.00016131589225371152,-0.001161889177456968,0.04380320982936713,0.00022053354594755826,-0.0023356807742564707,0.08763426204137467
6.36,152,6,360000000,,11.248738655418004,0.9990163692646002,0.00016134330613335512,-0.001173582076300981,0.04432708669451785,0.00021832686821715515,-0.002359161355611639,0.0886830364476839
6.374,153,6,373000000,,11.26599008566797,0.9989928695239519,0.0001613553214088418,-0.0011854643375834551,0.04485326386189664,0.00021604235673746864,-0.0023830177216906164,0.08973644066396662
6.381,154,6,381000000,,11.283848098993792,0.9989689878943265,0.0001613586689551839,-0.0011975530560163392,0.045381726007751755,0.00021369118389075038,-0.0024072845234862955,0.09079444462069314
6.39,155,6,390000000,,11.302843359861626,0.9989447211859995,0.00016138404247674243,-0.001210035342336157,0.04591245783321485,0.0002113167080438975,-0.0024323383098349086,0.09185701824833382
6.4,156,6,400000000,,11.322013097213246,0.9989200669441144,0.0001613705122882929,-0.0012225196168670824,0.04644544392844005,0.0002088321853048529,-0.0024573910784726452,0.09292413147735885
6.412,157,6,410000000,,11.336682617064731,0.9988950245687678,0.0001609717891572325,-0.0012331919714542608,0.046980668550005725,0.00020571610548109372,-0.002478786312226264,0.0939957542382387
6.42,158,6,420000000,,11.353977873293635,0.998869587642393,0.00016070443737725752,-0.001244836471818394,0.04751811695930382,0.00020274161610269514,-0.002502133941917356,0.09507185646144359
6.431,159,6,430000000,,11.371913876010922,0.9988437542390406,0.00016045249970475872,-0.0012566869262833388,0.04805777367526828,0.0001997474411318211,-0.0025258924404574293,0.09615240807744385
6.44,160,6,440000000,,11.389971268230278,0.9988175217742236,0.00016016602869518094,-0.0012685265781906734,0.0485996232903331,0.00019665408448999052,-0.0025496239259223483,0.09723737901670985
6.45,161,6,450000000,,11.40814814015086,0.9987908874142866,0.00015982481795554453,-0.0012803503145535512,0.049143650426902497,0.00019342160856882827,-0.002573316043777604,0.09832673920971186
6.46,162,6,460000000,,11.427023438410925,0.9987638480538643,0.00015947143946718135,-0.0012923669728780783,0.049689839777412204,0.0001901142438835239,-0.002597389962930538,0.0994204585869202
6.47,163,6,470000000,,11.446035396984891,0.9987364011626892,0.0001590717625545863,-0.001304364372564956,0.050238175945766905,0.00018668438814417699,-0.0026214183112353464,0.10051850707880516
6.48,164,6,480000000,,11.463976002420843,0.9987085445455597,0.00015852124829348366,-0.0013159099649514298,0.0507886434517386,0.00018296712708900078,-0.002644526292440691,0.10162085461583713
6.49,165,6,490000000,,11.482622169178386,0.9986802745457622,0.0001579913539316391,-0.001327655333183443,0.051341227130342726,0.00017923942832513467,-0.0026680324906166925,0.10272747112848633
6.502,166,6,500000000,,11.505148547978413,0.9986515868238546,0.00015777516243102596,-0.0013407327394143159,0.05189591194802249,0.00017596837583874102,-0.002694228786827488,0.10383832654722315
6.51,167,6,510000000,,11.521542447361833,0.9986224836959925,0.0001569330869958947,-0.0013515310567974478,0.05245268146297235,0.00017165159605986698,-0.0027158050623551757,0.10495339080251785
6.52,168,6,520000000,,11.547029482841735,0.9985929547603901,0.00015690578622959373,-0.0013655126107377188,0.05301152194379786,0.0001685948573590114,-0.0027438216173329196,0.10607263382484078
6.53,169,6,530000000,,11.561670433912626,0.9985630074588133,0.00015576276031797968,-0.0013755495410915437,0.05357241581478747,0.00016369546275739414,-0.0027638384667853034,0.10719602554466229
6.54,170,6,540000000,,11.577563232939758,0.9985326329400627,0.0001546397108251363,-0.0013860125304701783,0.05413534898392554,0.00015876166737972166,-0.002784704031133226,0.10832353589245261
6.55,171,6,550000000,,11.59689555871979,0.9985018274960524,0.00015381493529897176,-0.001397607863312973,0.05470030640014271,0.00015427044003471073,-0.002807859149020887,0.10945513479868216
6.5600000000000005,172,6,560000000,,11.61563442164434,0.9984705906091661,0.0001528886938126155,-0.0014088768158106077,0.055267272230029384,0.00014958077147430915,-0.0028303473938005733,0.11059079219382113
6.57,173,6,569000000,,11.635908482538454,0.9984389185866369,0.00015208539090918078,-0.0014205600503962587,0.055836231344208676,0.00014505909838868965,-0.0028536725042719053,0.11173047800833993
6.58,174,6,580000000,,11.654862345142993,0.9984068102202025,0.0001510686241204301,-0.0014317427815236248,0.0564071679558433,0.0001401353551732675,-0.002875970158242019,0.11287416217270889
6.59,175,6,590000000,,11.674641542799126,0.9983742618027469,0.00015005697267171937,-0.0014432003021182115,0.056980066914782496,0.0001351593073574068,-0.002898812645050114,0.11402181461739821
6.6,176,6,600000000,,11.69453272484987,0.9983412713095766,0.0001489982267646226,-0.0014545837738821443,0.057554912783803494,0.00013006582920888207,-0.002921497343879966,0.11517340527287835
6.61,177,6,610000000,,11.714537396796054,0.998307836228165,0.0001478975520600322,-0.0014658953694433455,0.05813169017428414,0.00012486516091858878,-0.0029440289909580474,0.11632890406961954
6.62,178,6,619000000,,11.734651132690042,0.9982739540494415,0.0001467597343478738,-0.0014771508643876927,0.05871038369315784,0.00011956517892074916,-0.0029664394595270626,0.1174882809380921
6.63,179,6,630000000,,11.754876333860143,0.9982396222775697,0.00014557882157484846,-0.0014883743842641097,0.05929097792779141,0.00011415126028129466,-0.002988776037383238,0.11865150580876632
6.641,180,6,640000000,,11.776023610710473,0.9982048380627577,0.0001444513251552904,-0.0014998262038428167,0.059873457585782795,0.0001087849555951157,-0.003011569698700815,0.1198185486121126
6.645,181,6,650000000,,11.800565748822251,0.9981695976513776,0.00014366348530688464,-0.0015123451500571622,0.060457807580471756,0.00010393538185262096,-0.003036529724978553,0.12098937927860119
6.66,182,6,660000000,,11.817048189841623,0.9981339048702422,0.00014184513147938677,-0.0015220233732644336,0.0610440109535086,9.734050160143832e-05,-0.0030556886125170267,0.12216396773870243
6.67,183,6,670000000,,11.83771828101783,0.9980977507411212,0.0001404617720547167,-0.0015330235860708166,0.06163205395481835,9.142280583382905e-05,-0.003077533539201953,0.12334228392288663
6.679,184,6,680000000,,11.858494918994378,0.9980611351172322,0.0001390333410633696,-0.0015439661312604965,0.062221920629451595,8.539088246264116e-05,-0.0030992519836927426,0.12452429776162412
6.691,185,6,690000000,,11.879378773282989,0.9980240556793346,0.0001375629838197328,-0.0015548549193538093,0.06281359556638762,7.925066393100151e-05,-0.0031208519425072628,0.1257099791853852
6.7010000000000005,186,6,700000000,,11.903024138407924,0.9979865086744051,0.00013637763280729758,-0.0015665810796288752,0.06340706371323289,7.354182616954148e-05,-0.0031441533552904253,0.12689929812464013
6.711,187,6,709000000,,11.920557717922659,0.9979484967412494,0.0001343647417146289,-0.0015761718192293355,0.06400230839893745,6.642124661380907e-05,-0.003163081176964732,0.12809222450985935
6.72,188,6,720000000,,11.942654767644369,0.9979100117875801,0.00013286268503993664,-0.001587177198863009,0.06459931570967271,6.010919017123923e-05,-0.003184891095864272,0.12928872827151308
6.73,189,6,730000000,,11.963957535250243,0.9978710545861462,0.0001311979825764255,-0.0015977934650780244,0.06519806946731516,5.349151471721558e-05,-0.003205896901958821,0.13048877934007166
6.74,190,6,740000000,,11.985380401905784,0.9978316224272207,0.0001294690417314562,-0.001608343272267117,0.06579855434541126,4.672352677554036e-05,-0.0032267549045932784,0.1316923476460054
6.75,191,6,750000000,,12.006919904091008,0.9977917131525911,0.00012769076565055388,-0.001618827527063729,0.06640075493940793,3.983504585860307e-05,-0.0032474686175236606,0.13289940311978463
6.759,192,6,760000000,,12.028561140420084,0.9977513246640973,0.00012589784071419857,-0.0016292240999990991,0.06700465588005745,3.289845002643454e-05,-0.003267998307815736,0.13410991569187963
6.77,193,6,770000000,,12.049326168521429,0.9977104554132212,0.0001239403490874125,-0.001639217589300921,0.067610241558712,2.5657508572144293e-05,-0.0032876942517084625,0.13532385529276084
6.78,194,6,780000000,,12.072162931006448,0.9976691016499292,0.00012219135839489534,-0.0016497856715352373,0.06821749694567614,1.8724689986898386e-05,-0.003308557591120872,0.1365411918528984
6.791,195,6,790000000,,12.094119412049507,0.9976272630248283,0.00012024378904978082,-0.0016599481653315916,0.06882640614698349,1.1420494377280305e-05,-0.0033285771320597122,0.1377618953027627
6.803,196,6,800000000,,12.116175515819723,0.9975849369770029,0.000118232796787455,-0.0016700220190376217,0.069436953879406,3.972052703570069e-06,-0.003348403328676107,0.13898593557282407
6.8100000000000005,197,6,810000000,,12.13833263450753,0.9975421215274463,0.00011617875897486593,-0.0016800012662736374,0.07004912473944927,-3.5788454173350687e-06,-0.0033680268630045646,0.1402132825935529
6.82,198,6,820000000,,12.160601335291782,0.9974988147164449,0.00011408197475332993,-0.001689888643876839,0.07066290328709848,-1.1231670863531276e-05,-0.003387453044046286,0.14144390629541934
6.83,199,6,830000000,,12.182970511555395,0.9974550146027135,0.00011194750162343523,-0.001699692560838742,0.07127827408724459,-1.897722081998987e-05,-0.003406699175051676,0.1426777766088938
6.84,200,6,840000000,,12.20435446719928,0.9974107198946062,0.00010960850607879981,-0.0017090789001974012,0.07189522150053893,-2.7099973233819384e-05,-0.0034250745847162157,0.14391486346444665
6.85,201,6,850000000,,12.227991809652348,0.9973659268718787,0.0001075154227137469,-0.001719079147262765,0.07251373057785444,-3.4849452565497384e-05,-0.00344470143539173,0.14515513679254813
6.86,202,6,860000000,,12.249555132695404,0.9973206362769949,0.00010506728420373925,-0.001728257788766089,0.07313378522906913,-4.3216785513749885e-05,-0.003462629170849023,0.1463985665236685
6.87,203,6,870000000,,12.27230981415468,0.9972748443978694,0.00010273509904694802,-0.0017376693762122882,0.07375537052882346,-5.141494910012663e-05,-0.0034810294744104086,0.14764512258827817
6.88,204,6,880000000,,12.297425515341319,0.997228548724912,0.00010068814490461257,-0.001747710317637994,0.07437847120335912,-5.916622040648587e-05,-0.003500718458102409,0.1488947749168474
6.89,205,6,890000000,,12.318105087212718,0.997181751612198,9.797960155511951e-05,-0.0017561378474989211,0.07500307081371278,-6.802494204894314e-05,-0.003517082022638085,0.15014749343984657
6.9,206,6,900000000,,12.3434793303363,0.9971344457498472,9.585065360636201e-05,-0.0017660127231918564,0.07562915516425227,-7.59725989481934e-05,-0.0035364098149293774,0.15140324808774597
6.91,207,6,910000000,,12.36548262966218,0.9970866343861525,9.319044747485594e-05,-0.0017746490420689016,0.07625670767095144,-8.482042271305772e-05,-0.003553177951085255,0.15266200879101588
6.92,208,6,920000000,,12.388734976268987,0.9970383130825643,9.061281435921763e-05,-0.0017835626164389982,0.07688571349207661,-9.357267009136849e-05,-0.003570501772918631,0.15392374548012666
6.93,209,6,930000000,,12.410870145859517,0.996989481743847,8.783168433282098e-05,-0.0017919241455979988,0.07751615693251862,-0.00010267227625843252,-0.0035866834897637177,0.15518842808554856
6.94,210,6,940000000,,12.437952893692785,0.9969401349602537,8.566769141171205e-05,-0.0018017820045621497,0.07814802331527912,-0.00011080100511343717,-0.0036059349256025845,0.15645602653775204
6.9510000000000005,211,6,951000000,,12.45907973501704,0.9968902780246967,8.257272767087783e-05,-0.0018094797505648595,0.07878129565207627,-0.00012047520950517834,-0.003620723827243956,0.1577265107672072
6.96,212,6,960000000,,12.481498666298956,0.9968399048208179,7.962489749019282e-05,-0.0018174651104959836,0.07941595958792215,-0.00012992578031697827,-0.003636098483072789,0.1589998507043846
6.97,213,6,968000000,,12.50649037871932,0.996789012950987,7.70133627024195e-05,-0.0018262126238654537,0.08005199982880866,-0.00013885272463872418,-0.003653035629712018,0.16027601627975432
6.985,214,6,980000000,,12.530318749941626,0.9967376033812602,7.418177625799751e-05,-0.0018344402273139948,0.08068940036893439,-0.00014816122986756393,-0.003668890708530788,0.16155497742378683
6.99,215,6,990000000,,12.554232298074737,0.996685673979279,7.129477787160808e-05,-0.0018425210611466955,0.08132814591311044,-0.00015758174619056627,-0.003684433571551649,0.16283670406695233
7.0,216,7,0,,12.578235619810533,0.9966332233674989,6.833464324527173e-05,-0.0018504489288215433,0.08196822097158955,-0.00016714800654604262,-0.0036996487392485264,0.16412116613972136
7.01,217,7,10000000,,12.602315894976526,0.9965802501310932,6.535895647928462e-05,-0.0018582472272257648,0.08260961018003311,-0.00017674848804947942,-0.0037145920712991177,0.16540833357256396
7.019,218,7,23000000,,12.622452722239945,0.9965267554833179,6.178441275495645e-05,-0.0018646028538761331,0.08325229753451456,-0.00018732660419715298,-0.003726549278301183,0.16669817629595057
7.03,219,7,30000000,,12.650707835107726,0.9964727304368024,5.9290274771915314e-05,-0.001873504578336432,0.08389626905341009,-0.00019619918056096764,-0.0037437496561923906,0.16799066424035153
7.04,220,7,40000000,,12.675025783340638,0.996418181483306,5.618608128842164e-05,-0.0018809343345740316,0.08454150778555164,-0.00020606583996760308,-0.0037579032950924044,0.16928576733623718
7.048,221,7,49000000,,12.69941999299484,0.9963631048550464,5.305033769255747e-05,-0.00188820794185272,0.08518799880289228,-0.00021599205144885375,-0.0037717289020448236,0.17058345551407772
7.06,222,7,60000000,,12.72249236514641,0.9963075002697743,4.969217701529885e-05,-0.001894860060665359,0.0858357264909653,-0.00022627762463450662,-0.0037842663412346665,0.1718836987043435
7.07,223,7,70000000,,12.748455670815964,0.996251363832882,4.665595214548586e-05,-0.0019022981483939742,0.08648467578767492,-0.00023607887057624748,-0.003798413433174775,0.17318646683750488
7.08,224,7,80000000,,12.773100604498836,0.9961946971257799,4.336882658532884e-05,-0.0019091372129529456,0.08713483076659241,-0.00024629889716094606,-0.003811311833229975,0.17449172984403227
7.09,225,7,90000000,,12.79782030412754,0.9961374981199711,4.005575053143265e-05,-0.0019158568542733876,0.0877861761744717,-0.00025657130311643476,-0.00382395570886908,0.17579945765439575
7.1,226,7,100000000,,12.822619109609125,0.9960797657911267,3.67214922937701e-05,-0.0019224419520080692,0.08843869656416105,-0.00026688341709457544,-0.0038363156704744757,0.17710962019906584
7.11,227,7,110000000,,12.847495758689972,0.9960214991813101,3.3345382580266e-05,-0.0019288638212304446,0.08909237644748243,-0.00027727074414874017,-0.0038483308073640208,0.17842218740851268
7.12,228,7,120000000,,12.872445826169072,0.9959626973496264,2.9924582614305236e-05,-0.0019351017780787386,0.08974720036683184,-0.00028773454546686346,-0.0038599592532049176,0.17973712921320675
7.13,229,7,130000000,,12.897482985795905,0.9959033593122688,2.6470645181522447e-05,-0.001941175022562279,0.0904031528729769,-0.0002982545150328862,-0.003871241180922426,0.18105441554361829
7.14,230,7,140000000,,12.922620432489124,0.9958434841628304,2.2959367156890416e-05,-0.0019470844298097412,0.09106021845748584,-0.0003088783272032788,-0.0038821738066029303,0.1823740163302176
7.15,231,7,150000000,,12.947833596089717,0.9957830709825504,1.9392088844127632e-05,-0.0019528533468011052,0.09171838164901257,-0.0003196068966558233,-0.003892803659588771,0.18369590150347512
7.16,232,7,160000000,,12.973109587718797,0.9957221189243172,1.577536583013538e-05,-0.0019584857953686,0.09237762699590779,-0.00033042730213721135,-0.0039031397442053917,0.18502004099386093
7.17,233,7,170000000,,12.998451255965433,0.9956606272341026,1.2135869151940013e-05,-0.00196395419577478,0.09303793910244913,-0.0003412807071185796,-0.0039131319120557515,0.18634640473184558
7.18,234,7,180000000,,13.025440866940306,0.9955985941232111,8.70099816072017e-06,-0.0019697672814120723,0.09369930267101885,-0.0003518089538770275,-0.003923835696040768,0.18767496264789923
7.19,235,7,190000000,,13.0493295425396,0.9955360220544444,4.808424751765009e-06,-0.0019743345634064035,0.09436170182825088,-0.00036303203292745726,-0.003931959948746621,0.18900568467249226
7.2,236,7,200000000,,13.074862192336107,0.9954729071336854,1.0806705775878256e-06,-0.0019792562961036732,0.09502512144772858,-0.0003740094961567266,-0.003940807619888323,0.190338540736095
7.21,237,7,210000000,,13.100472181677628,0.9954092497576383,-2.696872951733851e-06,-0.001984007844076655,0.09568954594174288,-0.00038506961651462536,-0.003949293660203277,0.19167350076917775
7.22,238,7,218000000,,13.12615075582939,0.9953450492824938,-6.534147765676067e-06,-0.001988603336641005,0.0963549598251408,-0.00039623416562787917,-0.003957444106954235,0.1930105347022108
7.23,239,7,230000000,,13.151889801486197,0.9952803051441084,-1.0418273450700418e-05,-0.0019930327927605925,0.09702134767151452,-0.00040747487443617604,-0.00396524137341957,0.1943496124656645
7.24,240,7,240000000,,13.177686677499313,0.9952150168384097,-1.4301974795501193e-05,-0.0019972715458175185,0.09768869413166209,-0.00041869209455774035,-0.003972645437035813,0.19569070399000912
7.25,241,7,250000000,,13.203539630912719,0.9951491838609108,-1.8194621203274498e-05,-0.002001319768498127,0.09835698373325147,-0.00042990369428295674,-0.003979654837131284,0.19703377920571502
7.26,242,7,260000000,,13.22944861666128,0.9950828057413855,-2.2135740296324815e-05,-0.0020051819379465798,0.09902620094326932,-0.0004411884077801477,-0.003986270658334543,0.19837880804325253
7.27,243,7,263000000,,13.25541308304837,0.9950158820605884,-2.614760344151875e-05,-0.0020088540342871903,0.0996963302682759,-0.000452588934487548,-0.003992480304111288,0.19972576043309193
7.28,244,7,280000000,,13.28143366474103,0.9949484124107101,-3.0214283066685982e-05,-0.0020123421638564435,0.1003673562844031,-0.00046407395787746416,-0.003998298879940317,0.2010746063057036
7.29,245,7,290000000,,13.307510891135122,0.9948803964261705,-3.430681668072037e-05,-0.0020156492260371248,0.10103926359661158,-0.000475585615416376,-0.004003737827712976,0.20242531559155771
7.299,246,7,299000000,,13.333643637185787,0.9948118338118277,-3.840678704872334e-05,-0.0020187626725198305,0.10171203680066195,-0.0004870839120309566,-0.0040087758645043475,0.20377785822112468
7.311,247,7,310000000,,13.35804319259705,0.9947427255451803,-4.276927545433966e-05,-0.0020210638849478928,0.1023856603558727,-0.0004989488087665814,-0.004012130037800204,0.20513220412487485
7.32,248,7,320000000,,13.386094253246393,0.9946730677960594,-4.6700715535070834e-05,-0.002024324330509159,0.10306011901421398,-0.0005101622399732536,-0.004017466628483339,0.20648832323327845
7.33,249,7,330000000,,13.410594062474614,0.9946028651701453,-5.117971931132e-05,-0.00202617613185231,0.10373539697835525,-0.0005221836045109211,-0.004019873701598107,0.20784618547680586
7.34,250,7,340000000,,13.43694498193432,0.9945321137226614,-5.543214501865803e-05,-0.0020284814156371987,0.10441147908519806,-0.0005338559324320633,-0.00402321516884028,0.20920576078592734
7.349,251,7,350000000,,13.470751110427855,0.9944608096232157,-5.869414007743441e-05,-0.0020330636825716584,0.10508835011835954,-0.0005440451078250593,-0.004031279089739204,0.2105670190911133
7.36,252,7,360000000,,13.491688884775497,0.9943889665113839,-6.375883112570384e-05,-0.002033166827986408,0.10576599381598388,-0.000556886527728632,-0.004030041198173014,0.21192993032283397
7.37,253,7,370000000,,13.518226994285133,0.9943165719579147,-6.806902208859736e-05,-0.0020348833681785214,0.10644439556006378,-0.0005685728263584,-0.0040321563041195285,0.21329446441155972
7.38,254,7,380000000,,13.544809837985055,0.9942436297491911,-7.23932228303316e-05,-0.002036345985221234,0.10712353969787886,-0.0005802389343690115,-0.0040337489499174175,0.21466059128776083
7.391,255,7,390000000,,13.57143621125002,0.9941701398414988,-7.675672432809873e-05,-0.002037594990283273,0.10780341071875033,-0.0005919427190350985,-0.004034893867755124,0.21602828088190767
7.4,256,7,400000000,,13.598107595497618,0.9940961022517201,-8.116924046809739e-05,-0.002038658687827805,0.10848399315219975,-0.000603708674198869,-0.004035645138495789,0.21739750312447043
7.41,257,7,410000000,,13.624839213571937,0.9940215170039424,-8.559579963822556e-05,-0.002039578758886377,0.1091652716069834,-0.0006154755234801977,-0.004036093124498662,0.21876822794591944
7.42,258,7,420000000,,13.65162350036341,0.9939463844205,-9.004528045364213e-05,-0.0020402686481319045,0.10984723070294797,-0.000627241233599449,-0.004036063800500168,0.22014042527672523
7.43,259,7,430000000,,13.678443270574217,0.9938707048691134,-9.452877968792764e-05,-0.002040638874999977,0.11052985506307005,-0.0006390070543380602,-0.004035376841705597,0.2215140650473579
7.44,260,7,440000000,,13.705301447168518,0.9937944784148255,-9.902011566547146e-05,-0.0020407714541767585,0.1112131292568162,-0.0006507377886605828,-0.004034201074502308,0.22288911718828794
7.45,261,7,450000000,,13.73220584100098,0.993717705321135,-0.00010353763310705895,-0.0020406707183082324,0.11189703782618912,-0.0006624698102731005,-0.0040325410672400535,0.2242655516299854
7.46,262,7,460000000,,13.761182603409745,0.9936403844485666,-0.00010780509276881223,-0.0020410583062465885,0.11258156532913079,-0.0006738155935475361,-0.0040318931118553,0.22564333830292085
7.47,263,7,470000000,,13.78614342956165,0.9935625202983531,-0.00011267706619795862,-0.002039870549840388,0.11326669629861828,-0.0006860078347201131,-0.0040279636230242674,0.22702244713756442
7.48,264,7,480000000,,13.827533925219157,0.9934840995695677,-0.00011536169970068695,-0.0020439249454990292,0.11395241535369416,-0.0006950461112539485,-0.004034933328065518,0.22840284806438663
7.49,265,7,490000000,,13.84229036766035,0.9934051516401493,-0.00012167947938582598,-0.002038796015817486,0.11463870724900094,-0.0007092097205619743,-0.004022813424290124,0.22978451101385763
7.5,266,7,500000000,,13.867300956815718,0.993325652222188,-0.00012659228558543477,-0.002036814609911018,0.11532555656923127,-0.0007212941690966468,-0.004017252555380612,0.23116740591644774
7.51,267,7,510000000,,13.894414064171215,0.9932456072105649,-0.00013124155644522284,-0.002035307119288619,0.11601294780109775,-0.0007329601225563198,-0.0040126790398533636,0.2325515027026274
7.52,268,7,520000000,,13.923681041560664,0.9931650170666637,-0.00013564136400895962,-0.0020343250580693983,0.11670086545502606,-0.0007442495550826453,-0.004009192773259944,0.2339367713028669
7.53,269,7,530000000,,13.948742185070836,0.9930838865719459,-0.00014063460794340959,-0.002031759703475565,0.11738929425451361,-0.000756343731598749,-0.004002408337003488,0.2353231816476364
7.54,270,7,540000000,,13.975954365728336,0.9930022124707448,-0.000145394365191237,-0.00202956584463054,0.11807821878384996,-0.000768055101203953,-0.003996401570717012,0.23671070366740635
7.55,271,7,550000000,,14.00319205572345,0.9929199967414938,-0.00015015737703338974,-0.0020270851043049823,0.11876762374323191,-0.00077969897139865,-0.003989809585949365,0.238099307292647
7.5600000000000005,272,7,560000000,,14.030455422958301,0.992837239995684,-0.00015489945898400131,-0.0020243693459805227,0.11945749374845048,-0.0007912384376065978,-0.003982741275267289,0.23948896245382884
7.57,273,7,570000000,,14.057745106187564,0.992753943008853,-0.00015965141334469806,-0.0020214093257480007,0.12014781336395279,-0.0008027313895901157,-0.003975171089972242,0.2408796390814218
7.58,274,7,580000000,,14.08505956408654,0.9926701065740625,-0.00016445016273862107,-0.0020182078470504746,0.12083856713594876,-0.0008142507072273548,-0.00396709575876318,0.24227130710589667
7.59,275,7,586000000,,14.112400792029744,0.992585731562628,-0.00016929396919716197,-0.002014746738155692,0.1215297397076762,-0.0008257874135671883,-0.003958479563921194,0.24366393645772347
7.6,276,7,600000000,,14.139761668881286,0.9925008189265436,-0.0001741589215556531,-0.0020109862726640773,0.1222213157882927,-0.000837283148281545,-0.003949249445624343,0.24505749706737256
7.61,277,7,610000000,,14.167139692277287,0.9924153694777209,-0.00017901432145798064,-0.0020069811403274737,0.12291328001877469,-0.0008486890853572745,-0.003939521575094115,0.2464519588653142
7.622,278,7,622000000,,14.187673386367315,0.9923293885570059,-0.00018473821062981222,-0.0020004538191825986,0.12360561743864942,-0.0008611837086341532,-0.003924558943714776,0.24784729178201895
7.63,279,7,630000000,,14.22196015975575,0.9922428640540383,-0.00018868836030505313,-0.0019982215425560527,0.12429831149781864,-0.0008712072844519571,-0.003918544871827915,0.24924346574795692
7.64,280,7,640000000,,14.249406615491134,0.9921558102375302,-0.00019356322184489402,-0.0019934083862246862,0.12499134797334949,-0.0008824142028647291,-0.003907165910194519,0.25064045069359847
7.65,281,7,650000000,,14.27919928378174,0.99206822227259,-0.0001981843170951119,-0.001989100525313147,0.12568471091974487,-0.000893230676096699,-0.0038968392294062514,0.2520382165494138
7.66,282,7,660000000,,14.304340273612228,0.9919801057074947,-0.00020343243040705296,-0.001982971324278834,0.12637838549578315,-0.0009048182203098454,-0.0038827270392341575,0.2534367332458733
7.67,283,7,670000000,,14.331824722893806,0.9918914572448468,-0.000208358799719607,-0.001977367693571418,0.12707235595639632,-0.0009158831554022192,-0.0038697246170728613,0.25483597071344766
7.68,284,7,680000000,,14.359321463212197,0.9918022796070074,-0.0002132689902770829,-0.0019714934275203767,0.12776660712544058,-0.0009268304175712815,-0.003856175597643755,0.2562358988826065
7.691,285,7,691000000,,14.391625386776088,0.9917125711051807,-0.00021756041391601593,-0.0019669230041524724,0.1284611232759314,-0.0009368681356044682,-0.003845357905658796,0.25763648768382064
7.7,286,7,700000000,,14.414372333801989,0.9916223419643013,-0.00022308631306231245,-0.0019588700373086745,0.12915589021762736,-0.000948441040097191,-0.0038273021091489697,0.25903770704756024
7.71,287,7,709000000,,14.441932304293086,0.9915315844869292,-0.00022804213530479902,-0.0019521731952355727,0.12985089133864167,-0.0009592119350499995,-0.003812069046607679,0.2604395269042957
7.72,288,7,720000000,,14.46949281148498,0.9914403031388209,-0.00023303479495123133,-0.001945175300487194,0.13054611177602204,-0.000969957461134382,-0.003796215924400465,0.2618419171844971
7.729,289,7,730000000,,14.497054605419928,0.9913484993660051,-0.0002380175776392481,-0.0019378592722132327,0.13124153631317917,-0.0009805791544731002,-0.003779721177558097,0.2632448478186351
7.74,290,7,740000000,,14.52461901841172,0.9912561745627217,-0.00024297351508363385,-0.0019302596100846882,0.13193714963188985,-0.0009910510738443882,-0.0037626579263366224,0.2646482887371796
7.75,291,7,750000000,,14.552182714985701,0.9911633301632081,-0.00024791621104352363,-0.0019224124920245059,0.13263293636024934,-0.001001408532211445,-0.003745094579610925,0.2660522098706014
7.76,292,7,760000000,,14.579744239453996,0.9910699677987929,-0.00025287528119635045,-0.0019142681644855894,0.13332888118778402,-0.0010116958576991456,-0.0037269248474317254,0.2674565811493703
7.77,293,7,770000000,,14.607303755415622,0.9909760891126933,-0.00025786439028308445,-0.0019057923834729336,0.13402496882394177,-0.0010219296231155773,-0.003708077329503475,0.2688613725039571
7.78,294,7,780000000,,14.634860327227793,0.9908816956617974,-0.0002628686775440611,-0.0018970224318682878,0.13472118396285182,-0.0010320889424521387,-0.003688630013637597,0.27026655386483184
7.791,295,7,790000000,,14.659853444282895,0.9907867905643807,-0.0002681809665596765,-0.0018871313829371932,0.13541751163437707,-0.0010425287880131016,-0.0036668651116068206,0.2716720951624649
7.8,296,7,800000000,,14.68995794367954,0.9906913710763744,-0.00027282324527960555,-0.0018786559356156179,0.13611393570889807,-0.0010519969705885877,-0.00364807444963149,0.27307796632732667
7.8100000000000005,297,7,810000000,,14.717501190470847,0.9905954434348699,-0.00027777509976945676,-0.0018690402470274915,0.13681044176385884,-0.0010617411228715133,-0.003626928388181944,0.2744841372898873
7.82,298,7,820000000,,14.74504101957154,0.9904990079800725,-0.00028273320512001046,-0.0018591105602167488,0.13750701422237277,-0.0010713825702589365,-0.0036051465429170074,0.27589057798061695
7.83,299,7,830000000,,14.769957128797447,0.9904020679914568,-0.0002880540665968969,-0.0018480166442794957,0.13820363807650934,-0.001081391077622879,-0.00358094642560149,0.2772972583299866
7.84,300,7,840000000,,14.797464229850103,0.9903046224698011,-0.0002930327569396079,-0.001837440460699762,0.13890029754936326,-0.001090832561288183,-0.003557854395303294,0.2787041482684658
7.85,301,7,850000000,,14.824960335665223,0.9902066747405411,-0.0002979906394145109,-0.0018265616914606854,0.1395969776651559,-0.00110011671588236,-0.0035341573292407297,0.28011121772652553
7.86,302,7,860000000,,14.855115368383204,0.9901082252806598,-0.00030258975571140163,-0.0018162727907236086,0.1402936628083096,-0.0011088234012705817,-0.003511717626423651,0.28151843663463544
7.87,303,7,870000000,,14.879926203322958,0.990009280496414,-0.00030781382856577365,-0.0018039228220553386,0.14099033883238882,-0.0011181554968647033,-0.0034850101727035778,0.28292577492326637
7.88,304,7,880000000,,14.907387968833605,0.9899098380670204,-0.000312733497237075,-0.0017921360189493167,0.14168698932638374,-0.0011270076278255144,-0.0034594925178356175,0.2843332025228884
7.89,305,7,890000000,,14.934836610773894,0.9898099015600912,-0.00031767076936477446,-0.0017800194152739457,0.14238359944096754,-0.0011357654268939865,-0.003433306214320619,0.2857406893639719
7.901,306,7,900000000,,14.96228157293982,0.9897094730456093,-0.0003226516135694617,-0.0017676053644654216,0.14308015386836173,-0.001144488102272765,-0.0034065080509559694,0.2871482053769871
7.91,307,7,910000000,,14.98970768980613,0.989608554740606,-0.00032757597047015994,-0.0017548694334086723,0.14377663757184006,-0.0011529692562759098,-0.003379078494820256,0.2885557204924045
7.92,308,7,920000000,,15.01987365519167,0.9895071474580522,-0.0003320826076277548,-0.0017427045874794879,0.1444730349625526,-0.0011607506543313366,-0.003352889608193865,0.2899632046406944
7.93,309,7,930000000,,15.047281123609924,0.9894052563004301,-0.00033682834797117825,-0.0017293041086869408,0.14516933167526783,-0.0011686100419875855,-0.0033241769795321527,0.2913706277523269
7.945,310,7,942000000,,15.07466281325453,0.9893028820599262,-0.00034162298176289416,-0.0017156057802225713,0.14586551181985705,-0.0011764392883977827,-0.0032948514250436644,0.29277795975777254
7.95,311,7,950000000,,15.102018672679996,0.9892000270916248,-0.0003464849397971546,-0.0017015954620670977,0.1465615601820568,-0.0011842693837451129,-0.0032648796079333365,0.29418517058750143
7.96,312,7,959000000,,15.129360708548603,0.9890966937452565,-0.00035144013326087354,-0.0016872880385993272,0.14725746151251387,-0.001192154572225029,-0.0032342833157020245,0.29559223017198416
7.973,313,7,971000000,,15.156676257430332,0.9889928845563425,-0.0003563144444063132,-0.0016726216570133881,0.14795320095805273,-0.0011997307985703977,-0.0032029915861489216,0.29699910844169064
7.98,314,7,980000000,,15.183956206059088,0.9888886020499653,-0.00036098402333940675,-0.0016575646131444582,0.14864876355272436,-0.0012067421927474812,-0.0031709791628238837,0.29840577532709167
7.99,315,7,990000000,,15.208339998489475,0.9887838499721605,-0.00036585564613419015,-0.0016412481561064642,0.1493441344290697,-0.0012137321469194889,-0.0031364076936792264,0.2998122007586572
8.0,316,8,0,,15.238426131846385,0.9886786266738151,-0.0003701878528286235,-0.001626542042773644,0.15003929645368094,-0.0012200902682148707,-0.0031051742462331606,0.30121835466685765
8.01,317,8,10000000,,15.265611331130831,0.9885729388965004,-0.00037492749102466667,-0.0016105820829414638,0.15073423611199488,-0.0012268321574368235,-0.0030713317369043553,0.3026242069821634
8.02,318,8,20000000,,15.292771963903169,0.9884667879839852,-0.0003797090337171386,-0.0015942575288269527,0.15142893784414055,-0.0012334989866916494,-0.0030367480335444013,0.3040297276350447
8.03,319,8,30000000,,15.316960934570123,0.9883601779580011,-0.000384706417380366,-0.0015765999811018902,0.1521233872890704,-0.0012401383618081375,-0.002999456086684213,0.30543488655597195
8.04,320,8,40000000,,15.344021150462137,0.9882531088393796,-0.00038921715174834986,-0.0015595587217082088,0.15281756821747874,-0.0012459518567764834,-0.002963523410855147,0.3068396536754153
8.05,321,8,50000000,,15.371043957627304,0.9881455846333144,-0.0003936833997095746,-0.0015422200699643954,0.15351146582689515,-0.0012515356413818116,-0.0029270102532849276,0.30824399892384535
8.06,322,8,60000000,,15.401012083458658,0.9880376069296302,-0.0003978060345912714,-0.001525500498326394,0.15420506441540174,-0.0012565800349370164,-0.0028918203436278885,0.3096478922317321
8.073,323,8,68000000,,15.433953794755185,0.9879291787155169,-0.00040155781483149484,-0.0015093329203809708,0.15489834895163115,-0.0012610132028643762,-0.002857830669904163,0.31105130352954596
8.08,324,8,80000000,,15.451888714941191,0.9878203101921458,-0.0004069955584096442,-0.001487988460356763,0.15559130765197024,-0.0012671184508546004,-0.002813084212856263,0.31245420274775737
8.09,325,8,90000000,,15.48177856399456,0.9877109932384686,-0.0004109851002929994,-0.0014700803085698003,0.15628392044932707,-0.0012713740709375423,-0.002775571801735243,0.3138565598168364
8.102,326,8,99000000,,15.511655456007468,0.9876012355827425,-0.00041493439621014813,-0.0014518993331006649,0.1569761742851885,-0.0012754117750655538,-0.002737528941633035,0.3152583446672537
8.11,327,8,110000000,,15.535414446370833,0.9874910424585667,-0.0004195738900544956,-0.0014315803863057387,0.15766805510134813,-0.0012800849049970288,-0.0026950420801005455,0.3166595272294793
8.12,328,8,120000000,,15.5621607965447,0.9873804135668226,-0.00042385013659636034,-0.0014118647381132804,0.15835954626618987,-0.0012841720400934814,-0.002653856862570082,0.3180600774339838
8.13,329,8,130000000,,15.588850223100145,0.9872693533554021,-0.00042803539412746743,-0.0013916509425042653,0.15905063350569157,-0.0012878631298839283,-0.0026117130201085293,0.3194599652112371
8.14,330,8,140000000,,15.615481926999031,0.9871578647986419,-0.0004321615377917089,-0.0013710473080380601,0.15974130158437655,-0.001291253704019982,-0.0025688149983847442,0.32085916049171015
8.15,331,8,150000000,,15.64205826789495,0.9870459509502346,-0.0004362544062340286,-0.001350138068650202,0.16043153531034846,-0.0012944202258720406,-0.0025253213835131497,0.32225763320587264
8.16,332,8,160000000,,15.66544947305093,0.9869336160323118,-0.00044066798383614867,-0.0013279829986868844,0.16112132018534556,-0.0012977571941401415,-0.0024792626511065015,0.3236553532841949
8.17,333,8,170000000,,15.69189583670732,0.9868208612900309,-0.00044467032750093136,-0.0013064236068398118,0.1618106400965673,-0.0013004106114413048,-0.0024345097619961923,0.32505229065714775
8.18,334,8,180000000,,15.721442313051172,0.9867076901202554,-0.0004482633286228976,-0.0012854225118300964,0.16249948001918157,-0.001302374817560018,-0.002390989717474161,0.326448415255201
8.196,335,8,194000000,,15.73190800997087,0.9865941128243852,-0.00045384770901400523,-0.0012581495804903527,0.16318782927091832,-0.0013061602839768774,-0.0023344432137275056,0.3278436970088254
8.2,336,8,200000000,,15.770874001796392,0.9864801177662549,-0.00045631226126318074,-0.0012393583410952882,0.16387566329964434,-0.001306491101169865,-0.0022956497919322627,0.3292381058484909
8.21,337,8,210000000,,15.800283742115326,0.9863657203105279,-0.00045972577553084063,-0.0012173005182916133,0.16456297465697803,-0.0013075643628002271,-0.0022501012215157368,0.33063161170466815
8.22,338,8,220000000,,15.826445276481712,0.986250921861054,-0.0004634527868779245,-0.001193919855361916,0.1652497470349488,-0.0013087549308512117,-0.002201839983492094,0.33202418450782706
8.23,339,8,230000000,,15.852541825564815,0.9861357249947463,-0.0004671427861663337,-0.001170143114281597,0.16593596485330034,-0.0013096734428937036,-0.002152809941704264,0.3334157941884384
8.243,340,8,243000000,,15.86561090948519,0.9860201367674201,-0.0004722978747351405,-0.0011419373082484307,0.16662161565373154,-0.001311936562823901,-0.002094557823332224,0.33480641067697203
8.25,341,8,248000000,,15.90458251959913,0.9859041502248963,-0.00047460398561748426,-0.0011212646741640437,0.16730667675234082,-0.0013110213470742195,-0.002052111600599076,0.3361960039038988
8.26,342,8,260000000,,15.930507565961383,0.9857877794561206,-0.0004781310121752584,-0.0010962752809459035,0.16799114097539333,-0.001311003487609893,-0.002000747336038808,0.3375845437996884
8.27,343,8,270000000,,15.959640527444297,0.9856710237509663,-0.00048114378735381307,-0.00107199828319154,0.16867499001944236,-0.0013101404465066682,-0.0019509626810891901,0.3389720002948116
8.28,344,8,280000000,,15.982136075823696,0.9855538891807599,-0.0004846837012390699,-0.0010454772111578308,0.16935821084254812,-0.001309486842834413,-0.0018965790710829197,0.3403583433197384
8.29,345,8,290000000,,16.00783455053146,0.9854363771674174,-0.00048794443844618943,-0.0010195081330373616,0.17004078648532328,-0.0013083949252053343,-0.0018433809340613083,0.34174354280493957
8.3,346,8,300000000,,16.033451272842758,0.9853184923079994,-0.0004911581066343582,-0.000993099423376876,0.17072270274670734,-0.0013069860299414772,-0.0017893357290520275,0.34312756868088506
8.316,347,8,309000000,,16.06900987332359,0.9852002363052125,-0.000493277794435748,-0.0009692772566638001,0.17140394266985462,-0.001304233031789424,-0.0017407657261888664,0.34451039087804514
8.32,348,8,320000000,,16.08107773709012,0.9850816198576634,-0.0004976838475392739,-0.0009381408355611593,0.17208449791065547,-0.0013033996125849526,-0.001677004023905842,0.34589197932689036
8.33,349,8,330000000,,16.109818392002794,0.9849626386135404,-0.0005003076543091214,-0.0009116691049661594,0.17276434553213343,-0.001300578606842953,-0.0016230500780147201,0.34727230395789094
8.34,350,8,340000000,,16.135119652681226,0.9848433006148598,-0.0005032030956345836,-0.000883810872899695,0.17344347465100646,-0.001297736808703944,-0.0015662764880515832,0.3486513347015172
8.351,351,8,351000000,,16.170530672148818,0.9847236074604585,-0.0005050323262579389,-0.0008585057931285237,0.17412186772549032,-0.0012936056178661677,-0.0015149080788896434,0.3500290414882396
8.36,352,8,360000000,,16.185475225993386,0.9846035683625596,-0.0005087889956188554,-0.0008267760706818839,0.17479951585402465,-0.0012909527511129257,-0.001450221706985473,0.3514053942485279
8.37,353,8,370000000,,16.207107895778144,0.984483182640331,-0.0005118091338043683,-0.000796635626210034,0.17547639875907653,-0.0012873180687761152,-0.0013889283526565255,0.35278036291285325
8.381,354,8,381000000,,16.2320721258656,0.9843624549817033,-0.0005144163868086293,-0.0007671978917056136,0.17615250212690783,-0.0012830334966841166,-0.0013291705243023626,0.3541539174116852
8.39,355,8,390000000,,16.26040620135492,0.9842413896296062,-0.000516611778925194,-0.0007384231597611704,0.17682781111433987,-0.001278090272502984,-0.0012708709557695866,0.35552602767549474
8.4,356,8,400000000,,16.28521231395268,0.9841199917232256,-0.0005190472618944507,-0.0007082633214460686,0.17750231222067525,-0.0012730476040326531,-0.001209768304893153,0.3568966636347515
8.41,357,8,410000000,,16.30992520462751,0.9839982650030556,-0.0005213745707702668,-0.0006776745476447881,0.17817598995583142,-0.0012675551873940261,-0.0011478685497411656,0.3582657952199263
8.42,358,8,420000000,,16.334542627502692,0.9838762136872456,-0.0005236078470767457,-0.0006466723239666911,0.17884882943474215,-0.001261644866010205,-0.0010851979471343603,0.3596333923614892
8.43,359,8,430000000,,16.35906656088013,0.9837538420207416,-0.0005257703061353284,-0.0006152905218545209,0.17952081576404674,-0.0012553730153007615,-0.0010218155789569474,0.36099942498991067
8.44,360,8,440000000,,16.38350503972882,0.9836311542916053,-0.0005278412189730464,-0.0005836040615651182,0.18019193405064254,-0.0012487245215439383,-0.0009578769596961869,0.36236386303566104
8.45,361,8,450000000,,16.40431093632296,0.9835081551444202,-0.0005301780409309521,-0.0005505281981532858,0.18086217015829173,-0.0012420091156246959,-0.0008911197608742208,0.3637266764292107
8.46,362,8,460000000,,16.432090792014964,0.9833848482152862,-0.0005317833412136976,-0.0005189632443581096,0.18153150741462962,-0.0012343124567802495,-0.000827610413944907,0.36508783510102943
8.47,363,8,470000000,,16.456235248033607,0.9832612387090601,-0.0005335978286629393,-0.0004859865686988725,0.18219993288345893,-0.0012264262271822655,-0.0007612606074586766,0.3664473089815882
8.48,364,8,480000000,,16.480275350136793,0.9831373308095498,-0.0005352858099563683,-0.00045264817838877136,0.1828674310734475,-0.0012180687387228107,-0.0006942580176516896,0.367805068001357
8.49,365,8,490000000,,16.504213307474934,0.9830131289921913,-0.0005369155858319877,-0.00041893073297174913,0.18353398717315592,-0.0012093667277800276,-0.0006265443458052708,0.36916108209080617
8.5,366,8,498000000,,16.528048583554273,0.9828886377936384,-0.0005384913162504543,-0.00038483204860534224,0.1841995863935708,-0.001200326276135132,-0.0005581143695810141,0.37051532118040614
8.51,367,8,510000000,,16.551780499256072,0.9827638618170488,-0.000539969851546272,-0.0003503248222621974,0.18486421398290925,-0.001190851182754646,-0.0004889309655525058,0.371867755200627
8.52,368,8,520000000,,16.575416399655793,0.9826388056882762,-0.0005413401743635474,-0.00031535912068265747,0.18552785519958617,-0.001180899905447675,-0.00041890086870625514,0.37321835408193943
8.53,369,8,530000000,,16.598946842899093,0.9825134740608438,-0.0005425606547774652,-0.00028000174343896094,0.1861904952349914,-0.0011704139723431575,-0.0003481717043969724,0.3745670877548133
8.54,370,8,540000000,,16.62236964990464,0.9823878716008153,-0.0005436588495082357,-0.0002443011904787405,0.1868521192911753,-0.0011594644146799475,-0.0002768294402196613,0.3759139261497193
8.55,371,8,550000000,,16.645684024216504,0.9822620029998014,-0.0005447045934160873,-0.0002082438151304442,0.187512712620338,-0.0011481822516305278,-0.0002048219035803984,0.37725883919712744
8.56,372,8,560000000,,16.668887658868094,0.9821358730194053,-0.0005457032662717821,-0.00017177809063102418,0.18817226051850214,-0.0011365575055043906,-0.0001320464160253648,0.3786017968275084
8.571,373,8,570000000,,16.691978116412237,0.9820094864935588,-0.0005465803764726589,-0.0001348845875050052,0.1888307482712954,-0.0011244351837034657,-5.849352609725007e-05,0.3799427689713323
8.58,374,8,580000000,,16.714955293111938,0.9818828482727336,-0.0005472958708008861,-9.75599755547852e-05,0.18948816115289316,-0.001111734006827391,1.5827242979621903e-05,0.38128172555906936
8.59,375,8,590000000,,16.734102882021983,0.9817559629920173,-0.0005481837123531812,-5.8858494691075516e-05,0.19014448495791786,-0.0010987487189709035,9.289886315765793e-05,0.3826186365211899
8.6,376,8,600000000,,16.760569024087687,0.9816288361650285,-0.0005483899519740075,-2.1742538226853016e-05,0.19079970336720747,-0.0010849279482216562,0.0001665790761129859,0.3839534717881645
8.61,377,8,610000000,,16.78320136374518,0.9815014720803897,-0.000548843365548097,1.6725438651665135e-05,0.19145380329272133,-0.0010709770811215213,0.00024298838719906177,0.3852862012904631
8.62,378,8,620000000,,16.80195969457338,0.9813738756210976,-0.0005495087983320888,5.65611532909572e-05,0.19210677002475193,-0.0010568158488345252,0.0003221440026968554,0.3866167949585564
8.63,379,8,630000000,,16.82810875148187,0.9812460527929058,-0.0005494077703116409,9.492252142812207e-05,0.19275858740704338,-0.0010416144205842495,0.00039809084089110174,0.3879452227229144
8.64,380,8,640000000,,16.850393453572686,0.9811180076660185,-0.0005494436546015007,0.00013473408987102071,0.19340924226069878,-0.0010260207876991248,0.00047691506351964534,0.3892714545140075
8.65,381,8,650000000,,16.872570306484143,0.9809897456374098,-0.0005493282981833615,0.000174979583589223,0.19405871939909242,-0.0010098585552111511,0.0005565102752697024,0.3905954602623061
8.66,382,8,660000000,,16.894619796788668,0.9808612718116685,-0.0005491629406863068,0.00021546770386781522,0.19470700412088232,-0.0009933995432992828,0.0006365396369965478,0.39191720989828044
8.67,383,8,670000000,,16.931784242946804,0.9807325933139351,-0.0005477162145645676,0.0002525816079982133,0.19535408012427816,-0.0009756409919415234,0.0007094272849094042,0.3932366733524009
8.68,384,8,680000000,,16.938326899629544,0.9806037093573203,-0.000548621060837745,0.00029755989121752597,0.19599993792781362,-0.000959316707238029,0.0007986361388055506,0.3945538205551379
8.69,385,8,690000000,,16.95997669601786,0.9804746311537944,-0.0005481502471955991,0.0003392623548506089,0.19664455775889592,-0.0009414671357312165,0.0008808579042746199,0.39586862143696167
8.7,386,8,700000000,,16.98149547021199,0.9803453619983322,-0.0005475291402800439,0.00038132156601486264,0.19728792668093698,-0.0009230755838709107,0.0009636955842771967,0.3971810459283421
8.712,387,8,712000000,,16.99515357374814,0.9802159058592101,-0.0005473952828245188,0.00042560873140552063,0.19793003085994781,-0.0009046502504484645,0.0010510690203639841,0.39849106395975015
8.72,388,8,720000000,,17.024137678106992,0.9800862718561351,-0.0005459920908461444,0.00046664411276467824,0.19857085348824716,-0.0008849155480740112,0.0011315394499476171,0.3997986454616558
8.73,389,8,730000000,,17.045264305026016,0.9799564615416887,-0.0005450943389457829,0.0005098823215947896,0.1992103821964927,-0.0008651904830073446,0.0012165021545801212,0.4011037603645295
8.741,390,8,740000000,,17.06625454448203,0.9798264816084277,-0.0005440488629002748,0.0005535104145290508,0.19984860163610182,-0.0008449112184809314,0.0013021435009287884,0.40240637859884126
8.751,391,8,750000000,,17.091017807011134,0.9796963382478556,-0.0005425525763187878,0.0005966456780629194,0.200485496917807,-0.0008238368193346934,0.0013866114621315197,0.4037064700950619
8.76,392,8,760000000,,17.107830751215843,0.9795660345925524,-0.0005415037813658883,0.0006419611842991652,0.20112105442274103,-0.0008026545630079933,0.0014755029016852983,0.4050040047836612
